X,Y,OBJECTID,LGACode,StateCode,Prim_Name,Alt_Name,Functional,Type,Ownership,WardCode,GlobalID,lat,lon,icon_url
4.12542830328628,7.60109669855803,"1","31020",OY,Mdg Health Center,,Functional,Primary,National Primary Healthcare Development Agency,OYSLAU12,e949ffbf-10de-4cc4-a77d-29484b0bc324,7.600000000000000,4.130000000000000,./0.png
4.11608333638933,7.57500666542046,"2","31020",OY,Papa Health Center,,Functional,Primary,National Primary Healthcare Development Agency,OYSLAU12,c2b2efa3-932d-432e-a9c1-6be642d97be0,7.580000000000000,4.120000000000000,./0.png
4.06376333563472,7.57643999859825,"3","31020",OY,Fakeye Hospital,,Functional,Primary,National Primary Healthcare Development Agency,OYSLAU14,bd8dd92e-ca88-4ad5-b4bd-d8f3a48724fa,7.580000000000000,4.060000000000000,./0.png
4.07380833571127,7.60013833151839,"4","31020",OY,Olowode Primary Health Center,,Functional,Primary,National Primary Healthcare Development Agency,OYSLAU12,e9a25906-6177-4aa0-868d-35b18621fc99,7.600000000000000,4.070000000000001,./0.png
4.05712500344495,7.59583666552653,"11","31020",OY,Ogunremi Primary Health Center,,Functional,Primary,National Primary Healthcare Development Agency,OYSLAU13,2cb3e49d-9ca8-4663-a2b6-ac1889c2fbfe,7.600000000000000,4.060000000000000,./0.png
4.07718170259981,7.62020329815001,"13","31020",OY,Anarun Health Center,,Functional,Primary,National Primary Healthcare Development Agency,OYSLAU13,eed20910-3a9a-4ab5-bc63-3334ae31946f,7.620000000000000,4.080000000000000,./0.png
4.08888500304662,7.44634499857511,"17","31020",OY,Ayede Health Center,,Functional,Primary,National Primary Healthcare Development Agency,OYSLAU02,1ae88252-a05b-4b10-9c39-c709c6535cd8,7.450000000000000,4.090000000000000,./0.png
4.07170170258229,7.45025169850909,"18","31020",OY,Model Primary Health Care Alugbo Erunmu,,Functional,Primary,National Primary Healthcare Development Agency,OYSLAU02,04e3074d-4bc8-40ee-8e16-2ad9729c77e3,7.450000000000000,4.070000000000001,./0.png
4.00166333621979,7.43094999818366,"19","31020",OY,Olodo Health Center,,Functional,Primary,National Primary Healthcare Development Agency,OYSLAU05,73d3ec79-ded0-4476-9c93-4c37c407f163,7.430000000000000,4.000000000000000,./0.png
4.00317283478689,7.46001631874721,"31","31020",OY,Odan Elekan Health Facility,,Functional,Primary,National Primary Healthcare Development Agency,OYSLAU08,4bc64b95-1baa-4eca-be1b-4d2d02d5c085,7.460000000000000,4.000000000000000,./0.png
4.12773170265564,7.47514329868898,"33","31020",OY,Odo Oba Health Center,,Functional,Primary,National Primary Healthcare Development Agency,OYSLAU03,26e4f12c-1a4f-4e13-b4c1-1eb82fd6b2a4,7.480000000000000,4.130000000000000,./0.png
4.11272500256338,7.50761499840704,"34","31020",OY,Igbo Pry Health Center,,Functional,Primary,National Primary Healthcare Development Agency,OYSLAU06,21599177-b93e-4813-b357-ce15fd53cc03,7.510000000000000,4.110000000000001,./0.png
4.04827670333338,7.54724499853849,"35","31020",OY,Oyedeji Primary Health Center,,Functional,Primary,National Primary Healthcare Development Agency,OYSLAU09,19df8753-fbea-45e2-9064-f019d966d856,7.550000000000000,4.050000000000000,./0.png
4.06544720283954,7.4616197982701,"36","31020",OY,Lalupon Primary Health Center,,Functional,Primary,National Primary Healthcare Development Agency,OYSLAU02,5455230e-55eb-475e-8b41-5a63d2f72733,7.460000000000000,4.070000000000001,./0.png
4.02645833571028,7.49918833104019,"40","31020",OY,Abudoro General Hospital,,Functional,Secondary,National Primary Healthcare Development Agency,OYSLAU08,213d3819-b53f-4c1c-a477-53e08821d6ef,7.500000000000000,4.030000000000000,./1.png
4.08827333636028,7.5314616655025,"41","31020",OY,Iyanaore Health Center,,Functional,Primary,National Primary Healthcare Development Agency,OYSLAU10,c3e9efe4-f552-48b5-825a-f398ff365e18,7.530000000000000,4.090000000000000,./0.png
4.08189000333429,7.50016329866593,"48","31020",OY,Ejioku Widow and Aged Clinic,,Functional,Primary,National Primary Healthcare Development Agency,OYSLAU01,22076965-8154-4a7f-9e2f-8b98fe6f7b8b,7.500000000000000,4.080000000000000,./0.png
4.10287000315448,7.481508298134,"49","31020",OY,Akinsawe Health Center,,Functional,Primary,National Primary Healthcare Development Agency,OYSLAU06,d048bc3d-402b-44e1-965c-f77817842134,7.480000000000000,4.100000000000000,./0.png
3.98238000277093,7.48525499877445,"50","31020",OY,Olorunda Primary Health Center,,Functional,Primary,National Primary Healthcare Development Agency,OYSLAU07,8cd2400e-d746-4755-b958-99ab0e1d9f9e,7.490000000000000,3.980000000000000,./0.png
4.04608783530612,7.48764131835372,"56","31020",OY,Ajiwogbo Health Clinic,,Functional,Primary,National Primary Healthcare Development Agency,OYSLAU04,31dafe00-18bc-4983-911f-7727b3a7a673,7.490000000000000,4.050000000000000,./0.png
3.94918500262175,7.40504333141167,"57","31020",OY,Apete Health Center Academy Egbeda,,Functional,Primary,National Primary Healthcare Development Agency,OYSLAU05,c4c8dfc9-78f4-48a4-9dc5-4259934f0ceb,7.410000000000000,3.950000000000000,./0.png
3.95208690262735,7.44088269811662,"58","31020",OY,Alegongo Primary Health Center,,Functional,Primary,National Primary Healthcare Development Agency,OYSLAU07,534bafeb-48a2-4848-b258-27772457f03f,7.440000000000000,3.950000000000000,./0.png
3.97081800288174,7.42976059800989,"66","31020",OY,Akitlkosawe Health Center,,Functional,Primary,National Primary Healthcare Development Agency,OYSLAU05,0245db83-3389-43ef-93f9-01fa7d987290,7.430000000000000,3.970000000000000,./0.png
3.96901166958441,7.40883833105413,"67","31020",OY,Adogba Maternity Health Center,,Functional,Primary,National Primary Healthcare Development Agency,OYSLAU05,9e2a2b2a-e7bb-4f7e-bc2d-4d254703039b,7.410000000000000,3.970000000000000,./0.png
3.97967400298545,7.4447601988663,"68","31020",OY,Kute Health Center,,Functional,Primary,National Primary Healthcare Development Agency,OYSLAU05,4eed3b39-dbc3-48c9-90f1-c586cb545433,7.440000000000000,3.980000000000000,./0.png
3.96108920264019,7.4298524988297,"84","31020",OY,Abidi Odan Primary Health Center,,Functional,Primary,National Primary Healthcare Development Agency,OYSLAU05,39617de8-d6f4-41ce-bd16-4df39073ae2f,7.430000000000000,3.960000000000000,./0.png
3.97201850338236,7.41220449886982,"85","31020",OY,Ifesowapo Oloya Primary Health Center,,Functional,Primary,National Primary Healthcare Development Agency,OYSLAU05,db09c6b2-aaa5-4099-ae00-06e30fca06fa,7.410000000000000,3.970000000000000,./0.png
3.95088166988962,7.41402166539753,"90","31020",OY,Monatan Maternity Center,,Functional,Primary,National Primary Healthcare Development Agency,OYSLAU05,c3f88d36-93a6-4f76-a44a-341903a846da,7.410000000000000,3.950000000000000,./0.png
3.94568407499834,7.41945192299912,"109","31020",OY,Elewuodo Primary Health Center,,Functional,Primary,National Primary Healthcare Development Agency,OYSLAU05,53fa4d93-592d-4d0f-a183-4f304fd2ddd7,7.420000000000000,3.950000000000000,./0.png
10.255336001808,9.69475799922567,"113","5001",BA,Yuli Health Center,,Functional,Primary,National Primary Healthcare Development Agency,BA0119,a3b150dd-477e-479f-9a3a-66928a848dc6,9.690000000000000,10.260000000000000,./0.png
10.6826690014624,10.0167439999677,"138","5001",BA,Maiari Health Clinic,,Functional,Primary,National Primary Healthcare Development Agency,BA0105,a9aa9aa0-8558-431d-bdac-e4352c5c6b2b,10.020000000000000,10.680000000000000,./0.png
10.6313070016942,9.55945999940598,"139","5001",BA,Mansur Health Clinic,,Unknown,Primary,National Primary Healthcare Development Agency,BA0116,be1f7acb-0048-4f26-b174-51058d3ca8f1,9.560000000000000,10.630000000000001,./0.png
10.9543100015317,9.70028899980741,"149","5001",BA,Gobirawa Maternal and Child Health,,Functional,Primary,National Primary Healthcare Development Agency,BA0111,2525ee1c-e662-4adc-a9f3-d6ae39693438,9.699999999999999,10.949999999999999,./0.png
10.750738058475,9.64906511971061,"150","5001",BA,Gwana Primary Health Center,,Functional,Primary,National Primary Healthcare Development Agency,BA0111,ccea57fe-275c-4a90-9c5c-645f8b3238ae,9.650000000000000,10.750000000000000,./0.png
10.2268136110316,10.0075355348532,"162","5001",BA,Shafa Primary Health Center,,Functional,Primary,National Primary Healthcare Development Agency,BA0115,04b852b0-7f29-48e4-ad88-7ce3805e838f,10.010000000000000,10.230000000000000,./0.png
9.03862090187669,11.4651013901864,"183","20002",KN,Falali Health Post,,Functional,Primary,National Primary Healthcare Development Agency,KN3703,6b1912b1-c3c3-475f-b23b-50635c140bca,11.470000000000001,9.039999999999999,./0.png
9.10840900220507,11.565951000235,"185","20002",KN,Takai Nysc Primary Health Center,,Functional,Primary,National Primary Healthcare Development Agency,KN3709,9f4d5480-eb4f-4e72-8b70-feb5a83f403a,11.570000000000000,9.109999999999999,./0.png
9.10650400248824,11.4874550001237,"186","20002",KN,Kyansha Health Post,,Functional,Primary,National Primary Healthcare Development Agency,KN3703,0e253757-c4cb-4a21-b4f4-659c88baaf76,11.490000000000000,9.109999999999999,./0.png
9.11793569690397,11.5415932789967,"188","20002",KN,Gamawa Health Post,,Functional,Primary,National Primary Healthcare Development Agency,KN3708,7faebcbf-793d-4164-8d46-1bd5e582641a,11.539999999999999,9.119999999999999,./0.png
9.15383151133855,11.6343723559144,"192","20002",KN,Garandiya Health Post,,Functional,Primary,National Primary Healthcare Development Agency,KN3709,01651eb1-e67c-435d-9e64-b3d7a7a42502,11.630000000000001,9.150000000000000,./0.png
9.16179696407809,11.4810247305807,"193","20002",KN,Salmande Health Post,,Functional,Primary,National Primary Healthcare Development Agency,KN3704,ab8d3c16-33a8-45ed-a451-d2a32c92bfab,11.480000000000000,9.160000000000000,./0.png
9.3242107268318,11.5209596305672,"195","20002",KN,Awazara Health Post,,Functional,Primary,National Primary Healthcare Development Agency,KN3706,3b4cc1c1-9329-45e3-9f5f-2673914a5a07,11.520000000000000,9.320000000000000,./0.png
9.33715600183445,11.5669589999548,"196","20002",KN,Langwami Health Post,,Functional,Primary,National Primary Healthcare Development Agency,KN3706,f49e86bf-b5ac-44b2-8161-d96a76845e7c,11.570000000000000,9.340000000000000,./0.png
9.15381100229816,11.5577159999878,"197","20002",KN,Dinyar Madiga Health Post,,Functional,Primary,National Primary Healthcare Development Agency,KN3708,2d2f241e-254c-48ca-b675-7a279a63d277,11.560000000000000,9.150000000000000,./0.png
9.17571073338123,11.5352537312631,"198","20002",KN,Sakwaya Health Post,,Functional,Primary,National Primary Healthcare Development Agency,KN3702,717fc165-40f9-4218-89d7-413297bf3047,11.539999999999999,9.180000000000000,./0.png
9.19298537798625,11.4863187858587,"199","20002",KN,Kafin Lafiya Health Post,,Functional,Primary,National Primary Healthcare Development Agency,KN3702,d348e1b1-c630-4ae0-96f6-4c1ab7408e07,11.490000000000000,9.190000000000000,./0.png
9.2492100596997,11.5379981851573,"200","20002",KN,Kachako Primary Health Center,,Functional,Primary,National Primary Healthcare Development Agency,KN3706,1c1b3967-ba48-4338-9857-d2db60edcc01,11.539999999999999,9.250000000000000,./0.png
9.23182711783384,11.5397249140631,"201","20002",KN,Durbunde Primary Health Center,,Functional,Primary,National Primary Healthcare Development Agency,KN3702,f1a5f71b-873a-4528-9cac-69f89266e15d,11.539999999999999,9.230000000000000,./0.png
9.2123012201342,11.4492753042774,"202","20002",KN,Danbazau Primary Health Center,,Functional,Primary,National Primary Healthcare Development Agency,KN3705,00e708b5-7dfe-4e34-a4d3-7b79e353c927,11.449999999999999,9.210000000000001,./0.png
9.14349700240836,11.5127379996413,"203","20002",KN,Zuga Health Post,,Functional,Primary,National Primary Healthcare Development Agency,KN3710,494af303-5941-4a33-ac3c-4d11ab958e43,11.510000000000000,9.140000000000001,./0.png
9.18061125252286,11.4700300769974,"204","20002",KN,Diribo Health Post,,Functional,Primary,National Primary Healthcare Development Agency,KN3707,c9afacf4-0415-4726-8124-8c333bc5e35b,11.470000000000001,9.180000000000000,./0.png
9.32053100229351,11.5606559997697,"205","20002",KN,Huguma Model Primary Health Center,,Functional,Primary,National Primary Healthcare Development Agency,KN3706,f686bd04-0be3-44b3-8024-4cb9f66e5e44,11.560000000000000,9.320000000000000,./0.png
9.15570184218851,11.5805284898983,"206","20002",KN,Kogo Health Post,,Functional,Primary,National Primary Healthcare Development Agency,KN3710,bb019a48-1c2e-4d1a-916c-9da9d9ebcc62,11.580000000000000,9.160000000000000,./0.png
9.19681000219124,11.4108700000058,"208","20002",KN,Faruruwa Dispensary,,Functional,Primary,National Primary Healthcare Development Agency,KN3705,f4e2057b-2a2f-4cdc-a601-20a72cd60dd8,11.410000000000000,9.199999999999999,./0.png
9.09255400219705,11.3915599998439,"209","20002",KN,Hatsai Health Post,,Functional,Primary,National Primary Healthcare Development Agency,KN3704,b09556e4-cc12-43b7-b7c4-1a9356e6013e,11.390000000000001,9.090000000000000,./0.png
9.12879422999325,11.3410541861381,"210","20002",KN,Birnin Bako Health Post,,Functional,Primary,National Primary Healthcare Development Agency,KN3701,29c86ec3-ac3f-4d63-aa0f-bc509b8c7a1b,11.340000000000000,9.130000000000001,./0.png
9.13697217634851,11.4370880156615,"211","20002",KN,Shawu Health Post,,Functional,Primary,National Primary Healthcare Development Agency,KN3707,64119ce9-5aa6-4951-9611-060929223618,11.440000000000000,9.140000000000001,./0.png
9.08698500169012,11.4443570001394,"212","20002",KN,Fajewa Model Primary Health Center,,Functional,Primary,National Primary Healthcare Development Agency,KN3704,89091159-bd54-4cb2-9962-6ed7faeaac48,11.440000000000000,9.090000000000000,./0.png
9.17961611220799,11.3751783199691,"213","20002",KN,Bagwaro Primary Health Center,,Functional,Primary,National Primary Healthcare Development Agency,KN3701,a175c21a-548f-4460-a5a4-59377ef2b789,11.380000000000001,9.180000000000000,./0.png
9.12116900247316,11.375375999948,"215","20002",KN,Kayarda Health Post,,Functional,Primary,National Primary Healthcare Development Agency,KN3701,d62a1be6-5b53-4806-a992-351e37e4c207,11.380000000000001,9.119999999999999,./0.png
9.20176450943426,11.3718974852256,"216","20002",KN,Shukutu Health Post,,Functional,Primary,National Primary Healthcare Development Agency,KN3701,df08814d-1f59-4172-8e44-dd696f82e8a0,11.369999999999999,9.199999999999999,./0.png
9.21485113178237,11.4226714057192,"217","20002",KN,Yada Health Post,,Functional,Primary,National Primary Healthcare Development Agency,KN3705,530a375f-9d94-4fdf-a72e-4c050eba4245,11.420000000000000,9.210000000000001,./0.png
9.15407506932881,11.412250884726,"218","20002",KN,Kurido Health Post,,Functional,Primary,National Primary Healthcare Development Agency,KN3707,9045cb95-0937-4c59-b6dd-d072b71972c3,11.410000000000000,9.150000000000000,./0.png
3.98716000311138,12.1691399997489,"219","507",KB,Afaja Dispensary,,Functional,Primary,National Primary Healthcare Development Agency,"50707",95f330fe-2480-4ab1-ad00-9fd2fcdfd4a0,12.170000000000000,3.990000000000000,./0.png
3.9554790035411,12.254185999754,"224","507",KB,Zogirma Health Post,Zogirma Upgraded Center,Unknown,Primary,National Primary Healthcare Development Agency,"50710",ab1afad1-45b7-4c4f-a66f-5e19cb42facb,12.250000000000000,3.960000000000000,./0.png
3.81784600311218,12.0944080005419,"226","507",KB,Bangalasa Health Post,,Unknown,Primary,National Primary Healthcare Development Agency,"50703",8f3ff478-5ee0-480b-bb98-a1c84138182f,12.090000000000000,3.820000000000000,./0.png
3.86995900331412,12.1270219999897,"227","507",KB,Bachaka Health Post,,Unknown,Primary,National Primary Healthcare Development Agency,"50703",cec71dc3-7a3c-4499-8534-9a525cef8991,12.130000000000001,3.870000000000000,./0.png
3.89645700309038,12.130583999677,"228","507",KB,Tunau Health Post,,Unknown,Primary,National Primary Healthcare Development Agency,"50703",35a8f63d-e77f-4cb6-8a2d-696c3989188a,12.130000000000001,3.900000000000000,./0.png
3.90961500372887,12.2920460001078,"229","507",KB,Zogirma Primary Health Center,,Functional,Primary,National Primary Healthcare Development Agency,"50710",70c0f138-6a83-499b-8158-c1ec6d6226a4,12.289999999999999,3.910000000000000,./0.png
3.91279000355365,12.086918000474,"230","507",KB,Gulmare Dispensary,,Unknown,Primary,National Primary Healthcare Development Agency,"50703",a1d8acf8-b8b1-4435-85b8-81d46043c23e,12.090000000000000,3.910000000000000,./0.png
3.93237500289761,12.2057279998997,"231","507",KB,Tsamiya Dispensary,,Unknown,Primary,National Primary Healthcare Development Agency,"50710",ac12b95c-d9f9-4a03-9a3d-f1f758ccd445,12.210000000000001,3.930000000000000,./0.png
3.96643200321896,12.1028650002331,"232","507",KB,Gerun Tsamiya Dispensary,,Unknown,Primary,National Primary Healthcare Development Agency,"50701",5f850df2-9ac4-4ca8-bcd3-32ea22e7f319,12.100000000000000,3.970000000000000,./0.png
4.07714500329619,12.0760389997017,"233","507",KB,Raha Dispensary,,Unknown,Primary,National Primary Healthcare Development Agency,"50705",9f743fe0-d0e4-4aa2-a5ff-1b32735be020,12.080000000000000,4.080000000000000,./0.png
4.11200200363832,12.1590510003349,"234","507",KB,Gumbire Dispensary,,Unknown,Primary,National Primary Healthcare Development Agency,"50705",9e2dd2c3-7d21-4987-904f-996c6a22462a,12.160000000000000,4.110000000000001,./0.png
4.11934200307824,12.2544770005796,"235","507",KB,Sabonbirni Health Post,,Unknown,Primary,National Primary Healthcare Development Agency,"50706",388d1650-26f7-4b27-8a9c-adb5271e1735,12.250000000000000,4.120000000000000,./0.png
4.12142300281603,12.2266509998001,"236","507",KB,Garafita Limac Health Post,,Unknown,Primary,National Primary Healthcare Development Agency,"50706",da25e36d-b99b-4aa8-9f0a-d9c8b5c22404,12.230000000000000,4.120000000000000,./0.png
4.12961700296688,12.198584000497,"237","507",KB,Chikadu Yamma Health Post,,Unknown,Primary,National Primary Healthcare Development Agency,"50706",2aafdb0e-8e28-405a-8f4f-97fe04b444a5,12.199999999999999,4.130000000000000,./0.png
4.00233700332553,12.0792340004529,"238","507",KB,Bunza General Hospital,,Functional,Secondary,National Primary Healthcare Development Agency,"50701",1b41c3aa-52f0-4d6d-8255-dba7e04fd0e5,12.080000000000000,4.000000000000000,./1.png
3.90263600295038,12.3476890003529,"239","507",KB,Hilema Health Post,,Unknown,Primary,National Primary Healthcare Development Agency,"50708",ebfc1b04-789a-4f8d-80e0-a830e42ee16f,12.350000000000000,3.900000000000000,./0.png
3.96708000342353,12.0502799998162,"241","507",KB,Much Marafa Health Post,,Functional,Primary,National Primary Healthcare Development Agency,"50701",75510129-e84d-4f31-b3c5-427dedeee162,12.050000000000001,3.970000000000000,./0.png
4.01641900340636,12.0875810004697,"243","507",KB,Bunza Primary Health Center,Dangaladima Primary Health Center,Unknown,Primary,National Primary Healthcare Development Agency,"50702",29a23c13-cb27-469e-991c-21adfff7cb55,12.090000000000000,4.020000000000000,./0.png
4.01082022634587,12.098393187007,"246","507",KB,Burma Primary Health Center,,Functional,Primary,National Primary Healthcare Development Agency,"50701",2dbd60e2-77a1-49a5-8b69-dd4e0187abec,12.100000000000000,4.010000000000000,./0.png
4.03454700300987,12.1951510004647,"247","507",KB,Gwadi Health Post,,Unknown,Primary,National Primary Healthcare Development Agency,"50709",80f63c91-ae24-494d-a571-4ef83da0f1f3,12.199999999999999,4.030000000000000,./0.png
3.803320003241,12.1272169999902,"248","507",KB,Owa Dispensary,,Unknown,Primary,National Primary Healthcare Development Agency,"50703",6cc028ce-52ec-4dc6-b68f-57ec1eebb325,12.130000000000001,3.800000000000000,./0.png
3.80581600323116,12.2199780005447,"249","507",KB,Damana Fada Dispensary,,Unknown,Primary,National Primary Healthcare Development Agency,"50703",3dfff771-c71b-4145-bfa0-b544722a6bc6,12.220000000000001,3.810000000000000,./0.png
3.85405500374871,12.2716550004565,"250","507",KB,Guddol Primary Health Center,,Unknown,Primary,National Primary Healthcare Development Agency,"50710",e6c19143-fa97-4979-911d-1bc3a5501cc1,12.270000000000000,3.850000000000000,./0.png
3.86526900287272,12.406999000632,"251","507",KB,Sabon Gari Tunga Health Post,,Functional,Primary,National Primary Healthcare Development Agency,"50708",05401bc0-368c-44e4-b692-3a54204d45b7,12.410000000000000,3.870000000000000,./0.png
3.92970900316246,12.3980840005,"252","507",KB,Tozo Health Post,,Unknown,Primary,National Primary Healthcare Development Agency,"50708",762bf106-de67-474c-8af5-13c66cffc6e9,12.400000000000000,3.930000000000000,./0.png
3.97307000356152,12.4026310006446,"253","507",KB,Afajan Health Post,,Unknown,Primary,National Primary Healthcare Development Agency,"50708",5450bac8-7044-4dae-a474-fe39ff2fc5ea,12.400000000000000,3.970000000000000,./0.png
3.9913670028634,12.1293779998178,"254","507",KB,Sabongerijika Dispensary,,Unknown,Primary,National Primary Healthcare Development Agency,"50701",c9a97adf-c39e-41c4-b853-c351966de242,12.130000000000001,3.990000000000000,./0.png
4.055461003385,12.0923619997145,"255","507",KB,Gardi Kofari Dispensary,,Unknown,Primary,National Primary Healthcare Development Agency,"50704",712e4f23-b7d9-4051-88eb-0ab7bf1c5b1b,12.090000000000000,4.060000000000000,./0.png
4.06543800302193,12.2288810001163,"256","507",KB,Yaryara Health Post,,Unknown,Primary,National Primary Healthcare Development Agency,"50709",f6846be4-489c-460e-990a-fd37a7be9ad9,12.230000000000000,4.070000000000001,./0.png
4.09433200357204,12.1151190005572,"257","507",KB,Matseri Ilela Health Post,,Unknown,Primary,National Primary Healthcare Development Agency,"50705",e5235796-d526-4966-897d-2e156bdc4848,12.119999999999999,4.090000000000000,./0.png
4.11721200287926,12.1933809997775,"258","507",KB,Lokon Yamma Health Post,,Unknown,Primary,National Primary Healthcare Development Agency,"50706",0e823068-89ef-499a-8cac-2637c14d08be,12.190000000000000,4.120000000000000,./0.png
4.12592500358169,12.2544380005796,"259","507",KB,Sabo Biarnin Yamma Health Post,,Unknown,Primary,National Primary Healthcare Development Agency,"50706",513ceba8-02c4-4580-b01f-c9a392d79d0e,12.250000000000000,4.130000000000000,./0.png
3.97668900317774,12.3426230005531,"260","507",KB,Tilli Primary Health Care,,Unknown,Primary,National Primary Healthcare Development Agency,"50708",ed037364-785f-42f1-bc44-ba839bb5192a,12.340000000000000,3.980000000000000,./0.png
4.04215400307067,12.1266109999186,"261","507",KB,Maidahini Primary Health Center,,Functional,Primary,National Primary Healthcare Development Agency,"50704",0f5f7894-5ad2-4a91-9c9b-401e460b88b1,12.130000000000001,4.040000000000000,./0.png
7.74822619208852,11.2464753130889,"265","19016",KD,Lafiya Health Clinic,,Functional,Primary,National Primary Healthcare Development Agency,KD1602,8fc85e78-3fb8-4c02-a738-ef60b4a2cc51,11.250000000000000,7.750000000000000,./0.png
7.66286000200828,11.2126600001522,"267","19016",KD,Dufa Dufa Health Center,,Functional,Primary,National Primary Healthcare Development Agency,KD1608,0967ef20-c0d5-4942-9a5b-987747557400,11.210000000000001,7.660000000000000,./0.png
7.6707900025762,11.2385999993914,"268","19016",KD,Musawa Health Post,,Functional,Primary,National Primary Healthcare Development Agency,KD1608,89af2255-9564-474d-b38c-c47ad3c52369,11.240000000000000,7.670000000000000,./0.png
7.73551900270662,11.2780559995977,"269","19016",KD,Dandako Health Clinic,,Functional,Primary,National Primary Healthcare Development Agency,KD1610,885351f1-d946-45c4-910e-276191573715,11.279999999999999,7.740000000000000,./0.png
7.74276000207932,11.3580899995905,"270","19016",KD,Damski Primary Health Center,,Functional,Primary,National Primary Healthcare Development Agency,KD1606,8ca0e84f-dc1f-431e-93ae-7694feacf2bc,11.359999999999999,7.740000000000000,./0.png
7.65114162081281,11.2319941174336,"271","19016",KD,Jaja Health Clinic,,Functional,Primary,National Primary Healthcare Development Agency,KD1608,3e7fb187-8637-4e16-bfe4-1901822526c7,11.230000000000000,7.650000000000000,./0.png
7.73579700203735,11.3073829994475,"276","19016",KD,Rahama Nursing Home Kudan,,Functional,Primary,National Primary Healthcare Development Agency,KD1606,f28dc026-d14f-4bde-982f-7990fc1d0467,11.310000000000000,7.740000000000000,./0.png
7.62934800253736,11.269377999605,"278","19016",KD,Kyaude Primary Health Center,,Functional,Primary,National Primary Healthcare Development Agency,KD1608,63175598-5a56-4c50-b175-d6782d629de7,11.270000000000000,7.630000000000000,./0.png
7.70236000242475,11.2205899998245,"279","19016",KD,Danbami Health Center,,Functional,Primary,National Primary Healthcare Development Agency,KD1608,d4ae6a9c-c34f-4657-8cd9-e4c86949de9e,11.220000000000001,7.700000000000000,./0.png
7.7213300021882,11.3058709998678,"280","19016",KD,Ung Kuka Kudan Health Center,,Functional,Primary,National Primary Healthcare Development Agency,KD1610,3f8535a3-ceb0-42cc-9fed-17b2c06b3ef2,11.310000000000000,7.720000000000000,./0.png
7.64802000204638,11.2600529994537,"281","19016",KD,Kudan Primary Health Center,,Functional,Primary,National Primary Healthcare Development Agency,KD1603,4b43ef74-7a77-4ea5-a666-057ff0284c82,11.260000000000000,7.650000000000000,./0.png
7.66373090278101,11.2831916995515,"283","19016",KD,Sabon Garin Primary Health Center,,Functional,Primary,National Primary Healthcare Development Agency,KD1608,143acac8-7509-41ca-b949-4ff0be8a8529,11.279999999999999,7.660000000000000,./0.png
7.80514700212622,11.3612800001096,"285","19016",KD,Kyadi Health Center,,Functional,Primary,National Primary Healthcare Development Agency,KD1601,a1a23c3d-64dc-4480-b9af-93d71d771da6,11.359999999999999,7.810000000000000,./0.png
7.82359600214276,11.3136539999559,"291","19016",KD,Kauran Wali North Model Primary Health Care Center,,Functional,Primary,National Primary Healthcare Development Agency,KD1604,074fff0f-d39c-4d99-9d8a-0705196e36cb,11.310000000000000,7.820000000000000,./0.png
7.80163513874179,11.1978983158443,"296","19016",KD,Likoro Primary Health Center,,Functional,Primary,National Primary Healthcare Development Agency,KD1607,8a291557-9e77-4bd8-845f-1b447a752399,11.199999999999999,7.800000000000000,./0.png
7.77022213534167,11.2263146909681,"298","19016",KD,Dankala Primary Health Center,,Functional,Primary,National Primary Healthcare Development Agency,KD1609,5e01175b-7d86-4831-83a6-d53b36bf256b,11.230000000000000,7.770000000000000,./0.png
7.76796200234508,11.3059560001906,"299","19016",KD,Matarawa Health Center,,Unknown,Primary,National Primary Healthcare Development Agency,KD1606,7bd70abc-a768-4035-8bec-ed5a954731e5,11.310000000000000,7.770000000000000,./0.png
7.79615200280556,11.2253829996234,"301","19016",KD,Tashan Jirgi Health Center,,Unknown,Primary,National Primary Healthcare Development Agency,KD1609,816ae097-988b-4fa5-9eda-44a180e402ac,11.230000000000000,7.800000000000000,./0.png
7.82722800235607,11.1936040000132,"302","19016",KD,Kushigi Health Clinic,,Functional,Primary,National Primary Healthcare Development Agency,KD1607,4eddd0d7-d896-45fb-b69f-056b85726ebe,11.190000000000000,7.830000000000000,./0.png
7.77401700278275,11.3580179998674,"303","19016",KD,Doka Primary Health Center,,Functional,Primary,National Primary Healthcare Development Agency,KD1601,fe734c99-0cb1-4fbd-87e1-91d0fabc7f20,11.359999999999999,7.770000000000000,./0.png
7.77644243116973,11.1993545709467,"304","19016",KD,Bagaddi Health Clinic,,Functional,Primary,National Primary Healthcare Development Agency,KD1609,7f6129e0-a875-4f0a-9421-c1a8dfbc1d43,11.199999999999999,7.780000000000000,./0.png
4.16747490337955,12.3251174999639,"306","512",KB,Amanawa Lebrosy Clinic,,Functional,Primary,National Primary Healthcare Development Agency,"51205",73ac9e27-149c-46e4-8721-67e1f43623aa,12.330000000000000,4.170000000000000,./0.png
4.21901000283216,12.3314210001714,"307","512",KB,Uguwar Dikko Health Center,,Functional,Primary,National Primary Healthcare Development Agency,"51205",f7b78c94-b07a-4450-9af6-89e643dfc2c1,12.330000000000000,4.220000000000000,./0.png
4.18876400288666,12.3011079998165,"308","512",KB,Badariya Dispensary,,Unknown,Primary,National Primary Healthcare Development Agency,"51201",cb800a53-d09a-41d1-899a-5a025d0cc171,12.300000000000001,4.190000000000002,./0.png
4.19950500358063,12.3018660005976,"309","512",KB,Biri Dispensary,,Functional,Primary,National Primary Healthcare Development Agency,"51201",3e2a4a0c-c5c0-4201-9db5-2a0b926cdf16,12.300000000000001,4.200000000000000,./0.png
4.18788500282111,12.3550340000209,"310","512",KB,Amanawa Health Care,,Unknown,Primary,National Primary Healthcare Development Agency,"51205",62eb0c48-c3f4-47f0-b697-a50f47b1cf18,12.359999999999999,4.190000000000002,./0.png
4.20071306648212,12.32605620602,"312","512",KB,Koko Health Clinic,,Functional,Primary,National Primary Healthcare Development Agency,"51205",931c987e-c395-4e88-8c60-560f1b930913,12.330000000000000,4.200000000000000,./0.png
4.16874400326829,12.2919619998256,"313","512",KB,Magarza Dispensary,,Functional,Primary,National Primary Healthcare Development Agency,"51201",bc551a90-acbd-4d7c-a1f6-aa4ada36a606,12.289999999999999,4.170000000000000,./0.png
4.15403500305174,12.2981000004964,"314","512",KB,Dangoma Health Clinic,,Functional,Primary,National Primary Healthcare Development Agency,"51202",2f05fcc9-8d51-44f2-bab4-56ac16d3f6f3,12.300000000000001,4.150000000000001,./0.png
4.15560000327595,12.3272260000723,"315","512",KB,Unguwar Jeji Primary Health Care,,Unknown,Primary,National Primary Healthcare Development Agency,"51205",e7a0c1bc-7d93-4e57-9348-0baeb3c35ec8,12.330000000000000,4.160000000000000,./0.png
4.22301100297721,12.3133379999345,"316","512",KB,Hirishi Primary Health Center,,Unknown,Primary,National Primary Healthcare Development Agency,"51201",e339b136-99a8-4641-96ef-645728f770e9,12.310000000000000,4.220000000000000,./0.png
4.20010221547235,12.3433748508659,"318","512",KB,Dangoma Primary Health Center,,Functional,Primary,National Primary Healthcare Development Agency,"51205",041bebe3-1a62-49f2-a8b3-ff5b12812b68,12.340000000000000,4.200000000000000,./0.png
4.20128192634698,12.3498952522637,"319","512",KB,Unguwan Jeji Primary Health Center,,Functional,Primary,National Primary Healthcare Development Agency,"51205",4d16e084-ce23-460e-9d97-1a0a070ce742,12.350000000000000,4.200000000000000,./0.png
4.05842700346582,12.4828380005249,"320","512",KB,Kutukullu Health Post,,Functional,Primary,National Primary Healthcare Development Agency,"51208",e8e3c654-7456-4e88-822d-427ae7c71390,12.480000000000000,4.060000000000000,./0.png
4.01397100293287,12.2642740000175,"321","512",KB,Kahta Health Center,,Unknown,Primary,National Primary Healthcare Development Agency,"51204",ef41f17f-a01a-4947-b826-85313f0109a6,12.260000000000000,4.010000000000000,./0.png
4.01154700356547,12.3151470006248,"322","512",KB,Mjtubare Health Center,,Functional,Primary,National Primary Healthcare Development Agency,"51207",68f5cf1e-67fa-48ca-af05-5e6ac036ac73,12.320000000000000,4.010000000000000,./0.png
4.03027300286606,12.2423499998166,"323","512",KB,Etene Health Center,,Functional,Primary,National Primary Healthcare Development Agency,"51204",dadbf77d-a68e-487f-aad2-85dc62689b09,12.240000000000000,4.030000000000000,./0.png
4.01557400311089,12.332751000356,"325","512",KB,Tuduwa Dispensary,,Unknown,Primary,National Primary Healthcare Development Agency,"51209",fbc41b8b-0e94-4757-bc88-2a39eb4e0134,12.330000000000000,4.020000000000000,./0.png
4.02076400322795,12.437940000267,"326","512",KB,Unguwar Kwalle Dispensary,,Unknown,Primary,National Primary Healthcare Development Agency,"51206",0193c404-4fdd-4e34-9d0e-573e2029a068,12.440000000000000,4.020000000000000,./0.png
4.04680100332891,12.4685750001828,"327","512",KB,Nayelwa Health Post,,Functional,Primary,National Primary Healthcare Development Agency,"51208",8ecbbad0-783f-412d-8777-0d5b78dda5d0,12.470000000000001,4.050000000000000,./0.png
4.04889500366631,12.3125640002178,"328","512",KB,Yangar Hausawa Health Clinic,,Functional,Primary,National Primary Healthcare Development Agency,"51202",29613e0d-4fbd-49f9-af1e-15bb77db8210,12.310000000000000,4.050000000000000,./0.png
4.0724560029011,12.4918810002626,"329","512",KB,Unguwar Rafi Health Post,,Unknown,Primary,National Primary Healthcare Development Agency,"51208",01b44da5-b2b2-4659-ae32-247c2b76f868,12.490000000000000,4.070000000000001,./0.png
4.11357100314802,12.2909610004298,"330","512",KB,Ubandawaki Dispensary,,Unknown,Primary,National Primary Healthcare Development Agency,"51202",2af271d8-8933-4af0-9495-6e225d1f0540,12.289999999999999,4.110000000000001,./0.png
3.95576000300968,12.4368740005721,"331","512",KB,Kokani Dispensary,,Functional,Primary,National Primary Healthcare Development Agency,"51206",b146ee81-f654-42b0-9357-9f0c32f63ac5,12.440000000000000,3.960000000000000,./0.png
4.04774000346347,12.4695600006407,"334","512",KB,Shamaki Primary Health Center,,Functional,Primary,National Primary Healthcare Development Agency,"51208",2a18b97b-aec1-4678-a510-7aee400aae57,12.470000000000001,4.050000000000000,./0.png
3.98850855810332,12.4251351660874,"335","512",KB,Unguwan Kwalle Primary Health Center,Tuji Primary Health Center,Functional,Primary,National Primary Healthcare Development Agency,"51206",10f4ba51-005b-4a11-bc4e-f5af1f4fd9be,12.430000000000000,3.990000000000000,./0.png
4.00400700299668,12.278274999969,"336","512",KB,Gangare Health Center,,Functional,Primary,National Primary Healthcare Development Agency,"51204",70fb64da-5c51-46fd-b3b7-24a4ec24e7f5,12.279999999999999,4.000000000000000,./0.png
4.02687441898952,12.441341450285,"338","512",KB,Nasarawa 2 Health Post,,Unknown,Primary,National Primary Healthcare Development Agency,"51206",00c61260-5a62-4b33-9f7c-892f465b0a98,12.440000000000000,4.030000000000000,./0.png
3.94092900346238,12.4266950006078,"339","512",KB,Unguwar Tuji Dispensary,,Unknown,Primary,National Primary Healthcare Development Agency,"51206",12fd07c2-0cb6-4da3-b570-7b8bbd94c739,12.430000000000000,3.940000000000000,./0.png
4.01395900327889,12.4263640006302,"340","512",KB,Sabana East Health Post,,Functional,Primary,National Primary Healthcare Development Agency,"51206",0c070b5c-67c6-49be-9f66-0a4379b6c3f0,12.430000000000000,4.010000000000000,./0.png
4.03985600321898,12.4550790001378,"341","512",KB,Mandinka Dispensary,,Unknown,Primary,National Primary Healthcare Development Agency,"51208",ee4459c9-fbb0-49fb-a333-a368ff85b3e0,12.460000000000001,4.040000000000000,./0.png
4.07209500334065,12.5110039998963,"342","512",KB,Mai Yaki Health Post,,Functional,Primary,National Primary Healthcare Development Agency,"51208",20b5813d-a273-403e-a438-427c36928ff1,12.510000000000000,4.070000000000001,./0.png
4.12240600318111,12.3271439998888,"343","512",KB,Gayi Primary Health Center,,Unknown,Primary,National Primary Healthcare Development Agency,"51202",ff45aa30-766a-463a-9dbd-ec1742a903d5,12.330000000000000,4.120000000000000,./0.png
3.98773300345536,12.4209269999118,"344","512",KB,Galaru Dispensary,,Functional,Primary,National Primary Healthcare Development Agency,"51206",f6f469f3-da4a-48df-83b9-c9e42e3178ee,12.420000000000000,3.990000000000000,./0.png
3.99970800349858,12.448218000301,"345","512",KB,Kukah Primary Health Center,,Functional,Primary,National Primary Healthcare Development Agency,"51206",9b5f06e6-0931-4388-b3e7-2b1e12ac594e,12.449999999999999,4.000000000000000,./0.png
4.03530100360654,12.4876340004628,"346","512",KB,Sandare 1 Health Post,,Functional,Primary,National Primary Healthcare Development Agency,"51208",43940111-2d48-4b85-9c0b-215d096c139c,12.490000000000000,4.040000000000000,./0.png
4.03382800312843,12.3589260005413,"348","512",KB,Yillabe Gabas Maternal Child Healthcare Center,,Unknown,Primary,National Primary Healthcare Development Agency,"51203",63a89155-9457-427d-8b23-6a93dc2402bc,12.359999999999999,4.030000000000000,./0.png
11.6155640020321,10.9572579997211,"361","708",YO,Njibulwa Model Community Health Center,,Functional,Primary,National Primary Healthcare Development Agency,"70811",2fd4c856-8e31-4ea1-814f-d0fd902f20b9,10.960000000000001,11.619999999999999,./0.png
11.5072080018231,11.0216959999475,"377","708",YO,Mabani Dispensary,,Unknown,Primary,National Primary Healthcare Development Agency,"70806",e17f1522-a194-4404-a45e-43177159c94f,11.020000000000000,11.510000000000000,./0.png
11.7477701569009,11.0194730539178,"379","708",YO,Dokshi Dispensary,,Functional,Primary,National Primary Healthcare Development Agency,"70804",5d8e4d75-dcc9-4244-969c-52d2ef816d9b,11.020000000000000,11.750000000000000,./0.png
11.7503667469615,11.0388524115933,"380","708",YO,Alagarno Mdg Clinic,,Functional,Primary,National Primary Healthcare Development Agency,"70804",511c627c-acb7-4f72-8f1e-cbd844b3e969,11.039999999999999,11.750000000000000,./0.png
11.6857100019517,10.7223999996741,"382","708",YO,Dambam Health Clinic,,Unknown,Primary,National Primary Healthcare Development Agency,"70802",d7b0571e-832a-4008-87b8-868280aa7602,10.720000000000001,11.690000000000000,./0.png
10.0711833020767,7.17596169898013,"390","35013",TA,Rufu Primary Health Center,,Functional,Primary,National Primary Healthcare Development Agency,TRSUSS11,30964d19-9a0c-4442-9bb2-a51d0b8403e0,7.180000000000000,10.070000000000000,./0.png
10.0326433018484,7.02431829882782,"394","35013",TA,Yukuben Gabon Gida Health Center,,Functional,Primary,National Primary Healthcare Development Agency,TRSUSS05,05a3cc29-a336-40ab-9847-5ca6d174654f,7.020000000000000,10.029999999999999,./0.png
9.96256524931728,7.19431092550962,"426","35013",TA,Rinyang Dispensary,,Functional,Primary,National Primary Healthcare Development Agency,TRSUSS04,778e3234-0162-4c86-97fc-6bb2728daee0,7.190000000000000,9.960000000000001,./0.png
10.1560200019158,7.18369359869618,"428","35013",TA,Kutukok Health Center,,Functional,Primary,National Primary Healthcare Development Agency,TRSUSS07,8a190339-af02-46c2-a900-d86329e9946c,7.180000000000000,10.160000000000000,./0.png
10.0772817235773,7.14287244830654,"430","35013",TA,Lumbu Iya Ussa Health Post,,Functional,Primary,National Primary Healthcare Development Agency,TRSUSS10,7ff06a5c-84e3-449f-9b53-2594e57ea4e2,7.140000000000000,10.080000000000000,./0.png
9.99750500167909,7.20018169893114,"432","35013",TA,Bika Health Center,,Functional,Primary,National Primary Healthcare Development Agency,TRSUSS06,5037a8c7-895d-42d0-83f7-fdcf11255106,7.200000000000000,10.000000000000000,./0.png
9.98909200131847,7.17336589851679,"467","35013",TA,Yiware Primary Health Center,,Functional,Primary,National Primary Healthcare Development Agency,TRSUSS04,d2b3807e-24e4-44a0-a1e4-722758c4cdd3,7.170000000000000,9.990000000000000,./0.png
10.0775477016713,7.159668399082,"468","35013",TA,Rufu Yikwe Primary Health Center,,Functional,Primary,National Primary Healthcare Development Agency,TRSUSS11,2e248701-d3f0-4c3b-9644-292d00bd82f4,7.160000000000000,10.080000000000000,./0.png
10.0457172941332,7.19500673907784,"470","35013",TA,Lissam Primary Health Center,,Functional,Primary,National Primary Healthcare Development Agency,TRSUSS09,6c9a8be5-4335-4767-8330-76b1473ac427,7.200000000000000,10.050000000000001,./0.png
4.40892600319301,13.6224180010329,"472","606",SO,Awilkiti Primary Health Center,,Functional,Primary,National Primary Healthcare Development Agency,"60601",50b3fd28-d8b0-4b81-9250-8e81c5c2e653,13.619999999999999,4.410000000000000,./0.png
4.253274002798,13.339321000416,"473","606",SO,Makuya Dispensary,,Functional,Primary,National Primary Healthcare Development Agency,"60604",fd62dfd8-efed-47ac-a2a5-6fad31b6a966,13.340000000000000,4.250000000000000,./0.png
4.58802500297467,13.3460300004241,"474","606",SO,Filisko Upgraded Dispensary,,Unknown,Primary,National Primary Healthcare Development Agency,"60607",a4270c08-244c-48d0-b014-a5f0e613b409,13.350000000000000,4.590000000000000,./0.png
4.6849660028759,13.4685550002905,"475","606",SO,Balle Primary Health Center,,Unknown,Primary,National Primary Healthcare Development Agency,"60603",f818d493-c0c0-4d7e-b298-d8518053ed90,13.470000000000001,4.680000000000000,./0.png
4.72111400339023,13.7426910004574,"476","606",SO,Jima Nimin Sule Dispensary,,Unknown,Primary,National Primary Healthcare Development Agency,"60609",e0ae2898-b1d5-4ec9-88c9-058d7573b391,13.740000000000000,4.720000000000000,./0.png
4.36267700361388,13.573520000676,"477","606",SO,Kurdula Primary Health Center,,Functional,Primary,National Primary Healthcare Development Agency,"60608",715784ae-8203-407a-a57a-6a69fa27b594,13.570000000000000,4.360000000000001,./0.png
4.65453000316059,13.5133230008499,"478","606",SO,Rafin Kudu Upgraded Dispenssry,,Unknown,Primary,National Primary Healthcare Development Agency,"60603",37afa29b-48ce-4e61-b814-a7af5c6c99fb,13.510000000000000,4.650000000000000,./0.png
4.17724700326899,13.4038060010244,"479","606",SO,Bachaka Dispensary,,Functional,Primary,National Primary Healthcare Development Agency,"60602",eec121fb-8b2a-4afd-9d3c-35e7eee78638,13.400000000000000,4.180000000000000,./0.png
4.30848800300753,13.476278000327,"480","606",SO,Tullun Doya Dispensary,,Functional,Primary,National Primary Healthcare Development Agency,"60610",48c23ad4-108b-49eb-9b22-41d05929eaaa,13.480000000000000,4.310000000000000,./0.png
4.31491800275226,13.4005140002917,"481","606",SO,Boto Dispensary,,Functional,Primary,National Primary Healthcare Development Agency,"60605",a3680689-b275-4e74-b1e1-67818fc36739,13.400000000000000,4.310000000000000,./0.png
4.19218100306987,13.3873760005738,"482","606",SO,Salawa Primary Health Center,,Functional,Primary,National Primary Healthcare Development Agency,"60602",2a256570-0dcd-4d72-8465-f985a633d61c,13.390000000000001,4.190000000000002,./0.png
4.20526800313023,13.4552800005665,"483","606",SO,Shatoka Primary Health Center,,Unknown,Primary,National Primary Healthcare Development Agency,"60602",bfaabfbe-bac2-482d-931b-89f7221fee54,13.460000000000001,4.210000000000000,./0.png
4.32293500283402,13.4356840006988,"485","606",SO,Illea Dispensary,,Functional,Primary,National Primary Healthcare Development Agency,"60610",6b8e5a18-fa88-401f-8693-ac25111a4061,13.440000000000000,4.320000000000001,./0.png
4.35780300278729,13.2537480003877,"486","606",SO,Dangadabro Dispensary,,Functional,Primary,National Primary Healthcare Development Agency,"60604",4d91fcc3-8fae-42f3-be03-916746f1ee60,13.250000000000000,4.360000000000001,./0.png
4.36600900349002,13.3413870003578,"487","606",SO,Yaka Dispensary,,Functional,Primary,National Primary Healthcare Development Agency,"60605",760af180-3de9-4906-82f0-fb01544663ab,13.340000000000000,4.370000000000000,./0.png
4.46275000316656,13.1865910006641,"488","606",SO,Bingel Dispensary,,Functional,Primary,National Primary Healthcare Development Agency,"60606",bcfb66e2-ce4f-4196-883a-b20f60a2f94c,13.190000000000000,4.460000000000000,./0.png
4.60031700323895,13.7060650003614,"489","606",SO,Tagimba Health Post,,Unknown,Primary,National Primary Healthcare Development Agency,"60609",31b7ca27-507b-4ade-b0b1-8898aeeef6b1,13.710000000000001,4.600000000000000,./0.png
4.30876600323569,13.5323760008687,"490","606",SO,Darusa Musa Dispensary,,Functional,Primary,National Primary Healthcare Development Agency,"60608",2b33f473-8f10-4d2f-9906-cdabd3991452,13.529999999999999,4.310000000000000,./0.png
4.42976000347744,13.5983990004473,"491","606",SO,Kukoki Dispensary,,Functional,Primary,National Primary Healthcare Development Agency,"60601",cd145597-b81d-45a2-b7f3-2096a367295c,13.600000000000000,4.430000000000000,./0.png
4.47448500292653,13.5649930004469,"492","606",SO,Katsura Dispensary,,Functional,Primary,National Primary Healthcare Development Agency,"60608",fc687bff-2aa4-4640-a450-be365d332d8e,13.560000000000000,4.470000000000000,./0.png
4.21161300345296,13.3195810002101,"493","606",SO,Chilas Dispensary,,Functional,Primary,National Primary Healthcare Development Agency,"60604",64c24ded-0b4b-4b77-909d-7643fa068c9e,13.320000000000000,4.210000000000000,./0.png
4.48548200284247,13.2217630002636,"494","606",SO,Karfen Chana Dispensary,,Functional,Primary,National Primary Healthcare Development Agency,"60606",a04a7d9c-2c14-461e-b48c-3b10929dae21,13.220000000000001,4.490000000000000,./0.png
4.51674100273692,13.2735750001041,"495","606",SO,Karfen Sarki Primary Health Center,,Functional,Primary,National Primary Healthcare Development Agency,"60607",9e4ffa97-2b9b-4f18-a7d2-8862861b617d,13.270000000000000,4.520000000000000,./0.png
4.68206234739714,13.4745465013995,"496","606",SO,Balle General Hospital,,Functional,Secondary,National Primary Healthcare Development Agency,"60603",a94998db-b6ca-46b2-aa99-de3b8fe0cb35,13.470000000000001,4.680000000000000,./1.png
11.7153260016464,12.8921639998574,"506","716",YO,Kujari Maternity and Child Health Center,,Unknown,Primary,National Primary Healthcare Development Agency,"71607",29ca1b92-f0bb-4cb9-92e8-04669dd84e95,12.890000000000001,11.720000000000001,./0.png
11.8327242497532,13.2252825858791,"514","716",YO,Toshia Maternity and Child Health Center,,Functional,Primary,National Primary Healthcare Development Agency,"71602",01a69eb4-0198-4013-bcd1-ad88e0c314d1,13.230000000000000,11.830000000000000,./0.png
11.3759390016905,13.2937589998615,"515","716",YO,Gremari Maternity and Child Health Center,,Unknown,Primary,National Primary Healthcare Development Agency,"71608",620d5584-2753-40ee-b869-76c1c46c9926,13.289999999999999,11.380000000000001,./0.png
11.7794130018482,13.0926900003731,"517","716",YO,Burkati Health Maternity and Child Health Center,,Functional,Primary,National Primary Healthcare Development Agency,"71609",a1f6fba6-905e-497e-b1d7-3b6091377d9a,13.090000000000000,11.779999999999999,./0.png
12.2404680016586,13.0900050006486,"524","716",YO,Buhari Dispensary,,Functional,Primary,National Primary Healthcare Development Agency,"71603",af896d3e-23fa-475e-b861-5e467096a5a5,13.090000000000000,12.240000000000000,./0.png
11.9163550018968,11.5660133295511,"544","707",YO,Katarko Maternal and Child Health Clinic,,Functional,Primary,National Primary Healthcare Development Agency,"70708",4f6dfbb0-882d-4f4c-b5c4-243d56b79654,11.570000000000000,11.920000000000000,./0.png
11.9332783317409,11.5030366700923,"545","707",YO,Gujba Maternal and Child Health Clinic,,Functional,Primary,National Primary Healthcare Development Agency,"70708",4ea2266b-0089-47b4-a33c-e8b387527fbc,11.500000000000000,11.930000000000000,./0.png
12.2715896966629,11.6125108388144,"546","707",YO,Gotumba Dispensary,,Functional,Primary,National Primary Healthcare Development Agency,"70705",a7b4afd4-ce17-4221-8c94-9751b8ac5d5d,11.609999999999999,12.270000000000000,./0.png
12.2380466714768,11.5195699999461,"547","707",YO,Dadingel Dispensary,,Functional,Primary,National Primary Healthcare Development Agency,"70703",dc378ecb-6e46-41ee-a193-f6365dfe0238,11.520000000000000,12.240000000000000,./0.png
12.0918966712792,11.5370283301872,"552","707",YO,Ngurbuwa Maternal and Child Health Clinic,,Functional,Primary,National Primary Healthcare Development Agency,"70706",441ad344-6ed3-41dc-9110-dad23928e00e,11.539999999999999,12.090000000000000,./0.png
12.001375001551,11.2808583302862,"553","707",YO,Buni Yadi Maternal Child Health,,Functional,Primary,National Primary Healthcare Development Agency,"70702",64ea380a-17a2-4c9b-b9ce-f566e3f5d8ac,11.279999999999999,12.000000000000000,./0.png
11.5863460018338,11.2885780001118,"557","707",YO,Daddawel Dispensary,,Functional,Primary,National Primary Healthcare Development Agency,"70710",073baa3e-77c3-41e1-acbc-56288dfbb87a,11.289999999999999,11.590000000000000,./0.png
6.6886350027127,6.4989399987322,"572","4003",AN,Igbedor Primary Health Center,Olumbanasa,Functional,Primary,National Primary Healthcare Development Agency,ANSNZM06,6b9dbf93-1761-458e-8419-7cd5ab005705,6.500000000000000,6.690000000000000,./0.png
12.4206850016658,9.26501039985018,"599","2020",AD,Maiha Cottage Hospital,,Functional,Secondary,National Primary Healthcare Development Agency,ADSYLN06,c61863cc-71a1-4fce-83f6-ee394def8a6e,9.270000000000000,12.420000000000000,./1.png
12.4544595015543,9.27850969950711,"600","2020",AD,Ajiya Clinic,,Functional,Primary,National Primary Healthcare Development Agency,ADSYLN02,81af6000-35f9-4bea-b962-3c4ac04a1fde,9.279999999999999,12.449999999999999,./0.png
12.4445705014785,9.2771530398243,"605","2020",AD,Adamawa State Cold Chain Office,,Functional,Primary,National Primary Healthcare Development Agency,ADSYLN09,3b578c27-82ae-4a3f-aa2a-87e0be162248,9.279999999999999,12.440000000000000,./0.png
12.4589030715682,9.27826329965576,"606","2020",AD,Ajiya Primary Health Center,,Functional,Primary,National Primary Healthcare Development Agency,ADSYLN01,2e269278-c97f-4fea-bcd2-40196c10cb94,9.279999999999999,12.460000000000001,./0.png
12.4406850012614,9.23590333280811,"614","2020",AD,Jabore Primary Health Center,,Functional,Primary,National Primary Healthcare Development Agency,ADSYLN06,8618a4d7-f01b-4c76-a67e-3286598011c8,9.240000000000000,12.440000000000000,./0.png
12.4446750018001,9.26289999947614,"615","2020",AD,Koma 1 Health Center,,Functional,Primary,National Primary Healthcare Development Agency,ADSYLN06,4484b625-ce7f-4815-a1dc-601de7d44080,9.260000000000000,12.440000000000000,./0.png
12.4056402017901,9.2558107993666,"616","2020",AD,Wauru Jabbe Primary Health Center,,Functional,Primary,National Primary Healthcare Development Agency,ADSYLN06,b5f55b4e-164e-4d8a-a7f9-69128294eef8,9.260000000000000,12.410000000000000,./0.png
12.4464167017197,9.26744589975012,"617","2020",AD,Jada 1 Primary Health Center,,Functional,Primary,National Primary Healthcare Development Agency,ADSYLN08,598fba48-0437-40ef-830f-03b93313d727,9.270000000000000,12.449999999999999,./0.png
12.4464768016139,9.28007069954716,"618","2020",AD,Dubeli Primary Health Center,,Functional,Primary,National Primary Healthcare Development Agency,ADSYLN09,0c499a66-583c-4b36-ae5b-fc1f82cdfdaf,9.279999999999999,12.449999999999999,./0.png
12.4153983316238,9.28330499976917,"629","2020",AD,Mayo Ine Primary Health Center,,Functional,Primary,National Primary Healthcare Development Agency,ADSYLN05,86705872-46db-4bcc-9fc4-d26fc6900252,9.279999999999999,12.420000000000000,./0.png
12.4155403012992,9.26963099961169,"630","2020",AD,Pakka Primary Health Center,,Functional,Primary,National Primary Healthcare Development Agency,ADSYLN05,a70699df-4476-4e45-b842-ae33cbfc5548,9.270000000000000,12.420000000000000,./0.png
12.4543588017644,9.23327109901773,"631","2020",AD,Kwambla Primary Health Center,,Functional,Primary,National Primary Healthcare Development Agency,ADSYLN06,543b42fe-740e-4c8c-87f1-5b2a8e6ba641,9.230000000000000,12.449999999999999,./0.png
12.4267742015221,9.2763460997352,"632","2020",AD,Lokoro Primary Health Center,,Functional,Primary,National Primary Healthcare Development Agency,ADSYLN06,35b0308d-43b1-4fb6-8f85-c1646b6934f4,9.279999999999999,12.430000000000000,./0.png
12.4231923016373,9.26492259903888,"633","2020",AD,Wuro Ladde Maternity,,Functional,Primary,National Primary Healthcare Development Agency,ADSYLN06,154b83bb-53c2-4dcb-b592-1b7a396b629b,9.260000000000000,12.420000000000000,./0.png
12.4543588017668,9.27945399934683,"634","2020",AD,Fadama Rake Health Center,,Functional,Primary,National Primary Healthcare Development Agency,ADSYLN11,4a719636-71f4-4162-a42d-6616e87f5af6,9.279999999999999,12.449999999999999,./0.png
12.4343817016068,9.27397829900164,"657","2020",AD,Danaba Health Center,,Functional,Primary,National Primary Healthcare Development Agency,ADSYLN06,bbbf362b-d56e-48fd-9493-ee5ac97709f3,9.270000000000000,12.430000000000000,./0.png
12.4449567018406,9.26247999899346,"658","2020",AD,Sapeo Primary Health Center,,Functional,Primary,National Primary Healthcare Development Agency,ADSYLN06,4ccb3856-1751-4306-94f6-59031a436afa,9.260000000000000,12.440000000000000,./0.png
10.6516850017049,12.1742200000956,"680","5007",BA,Kekeno Health Center,,Functional,Primary,National Primary Healthcare Development Agency,BA0705,7020f1b0-387a-4c87-acfc-0b82e08f2970,12.170000000000000,10.650000000000000,./0.png
10.5323150017012,12.138622999787,"689","5007",BA,Gamawa General Hospital,,Functional,Secondary,National Primary Healthcare Development Agency,BA0701,3c5f329c-cc08-4b2d-af92-25e5c5b95d26,12.140000000000001,10.529999999999999,./1.png
10.7414530017811,12.0418799999725,"700","5007",BA,Duwaru Health Post,,Functional,Primary,National Primary Healthcare Development Agency,BA0718,1a51ca72-2c0b-455d-9260-69b8c534a07a,12.039999999999999,10.740000000000000,./0.png
10.7417720021021,11.9632999995871,"714","5007",BA,Wabu Maternity,,Functional,Primary,National Primary Healthcare Development Agency,BA0718,f554b5c3-ab10-497e-acc9-fdc7956f7b44,11.960000000000001,10.740000000000000,./0.png
9.94681000235445,12.1895066699507,"717","18027",JI,Kanzan Basic Health Center,,Functional,Primary,National Primary Healthcare Development Agency,JI1505,4c56bac2-a196-4fe5-b2ab-ca1643e2f238,12.190000000000000,9.949999999999999,./0.png
9.99678833487924,12.2789783299616,"718","18027",JI,Gurgun Daho Basic Health Center,,Functional,Primary,National Primary Healthcare Development Agency,JI1510,c90967da-6be9-4f40-9632-d7e3fe75a7af,12.279999999999999,10.000000000000000,./0.png
10.0791650022131,12.3211583298781,"719","18027",JI,Limawa Basic Health Care,,Functional,Primary,National Primary Healthcare Development Agency,JI1504,918a8be0-17b1-4670-bc63-5acb7404376f,12.320000000000000,10.080000000000000,./0.png
9.84262500203578,12.0033340003717,"720","18027",JI,Dumadumin Kyaure Basic Health Center,,Functional,Primary,National Primary Healthcare Development Agency,JI1509,1b97f021-cb6a-4d27-8e22-ab55042f8bd6,12.000000000000000,9.840000000000000,./0.png
9.8486200024045,12.1805939999658,"721","18027",JI,Kununu Health Post,,Functional,Primary,National Primary Healthcare Development Agency,JI1506,12e8bdc5-d096-4c99-bd4d-2a2b1877856b,12.180000000000000,9.850000000000000,./0.png
9.97553500230802,12.2994509997449,"722","18027",JI,Manaba Basic Health Center,,Functional,Primary,National Primary Healthcare Development Agency,JI1510,992c31df-ec00-4b37-af86-d37a5d503470,12.300000000000001,9.980000000000000,./0.png
9.99264700182403,12.3385380000192,"723","18027",JI,Aguran Kwari Primary Health Center,,Functional,Primary,National Primary Healthcare Development Agency,JI1510,5dcf72aa-ade6-4890-805b-2615abd7f77f,12.340000000000000,9.990000000000000,./0.png
10.0273610018684,12.2505510001966,"724","18027",JI,Aduya Primary Health Care,,Functional,Primary,National Primary Healthcare Development Agency,JI1508,94240ae2-70d6-47c3-8511-25cc231c447d,12.250000000000000,10.029999999999999,./0.png
10.0440100016169,12.3427299999803,"725","18027",JI,Waek Basic Health Center,,Functional,Primary,National Primary Healthcare Development Agency,JI1504,fe2a0ce4-6e36-4749-ae9c-566901728ca4,12.340000000000000,10.039999999999999,./0.png
10.0593120021998,12.0141750002849,"726","18027",JI,Sabon Sara Primary Health Care,,Unknown,Primary,National Primary Healthcare Development Agency,JI1501,519c830c-421d-4efe-ad1d-a83759eb8212,12.010000000000000,10.060000000000000,./0.png
10.1172280020135,12.3400850003117,"727","18027",JI,Sabon Gida Basic Health Center,,Functional,Primary,National Primary Healthcare Development Agency,JI1508,f4a57afd-d35e-40d6-9e7e-3cc13d99f9b3,12.340000000000000,10.119999999999999,./0.png
9.91927100223435,12.0663830003983,"728","18027",JI,Gafaya Basic Health Center,,Functional,Primary,National Primary Healthcare Development Agency,JI1503,9e5585f8-9920-4bc7-9a1a-9b6e36dd1c40,12.070000000000000,9.920000000000000,./0.png
9.94000400235769,11.9761319995924,"729","18027",JI,Ruba Dispensary,,Functional,Primary,National Primary Healthcare Development Agency,JI1509,c9ab1ffe-fdde-4f4e-9a40-4f8443d2c336,11.980000000000000,9.940000000000000,./0.png
10.0057340018864,12.255008999835,"730","18027",JI,Sarawa Basic Health Center,,Functional,Primary,National Primary Healthcare Development Agency,JI1510,708bbebc-7621-4832-9933-01eba1167de1,12.260000000000000,10.010000000000000,./0.png
10.0205560019178,12.003827999769,"731","18027",JI,Shamakeri Basic Health Center,,Functional,Primary,National Primary Healthcare Development Agency,JI1511,91ba2350-8178-4c5e-890d-0b2e83d5ee44,12.000000000000000,10.020000000000000,./0.png
10.1217268146817,12.0290050357659,"732","18027",JI,Tuminjira Dispensary,,Functional,Primary,National Primary Healthcare Development Agency,JI1501,de8047a5-1fbd-4af2-9947-84222cc3a667,12.029999999999999,10.119999999999999,./0.png
10.0234523036405,12.0654682792596,"733","18027",JI,Zago Health Post,,Functional,Primary,National Primary Healthcare Development Agency,JI1511,4321cd65-efd6-4387-8627-861c510e5e6d,12.070000000000000,10.020000000000000,./0.png
10.1054012785912,12.3326549607454,"734","18027",JI,Mezan Health Post,,Functional,Primary,National Primary Healthcare Development Agency,JI1508,1f06a81e-cf9a-43f1-bbb0-334b2c4b681a,12.330000000000000,10.109999999999999,./0.png
9.82616454965193,12.1946474249952,"735","18027",JI,Kwazalewa Health Post,,Functional,Primary,National Primary Healthcare Development Agency,JI1506,1192b4bb-d508-44e2-93af-fe3fdfff8cb2,12.190000000000000,9.830000000000000,./0.png
9.91167951368011,12.2412900344747,"736","18027",JI,Kafin Hausa Basic Health Center,,Unknown,Primary,National Primary Healthcare Development Agency,JI1505,5fdf1e05-2031-4901-9117-13e5424a1851,12.240000000000000,9.910000000000000,./0.png
10.0318600015963,12.1553100004006,"737","18027",JI,Majawa Health Post,,Functional,Primary,National Primary Healthcare Development Agency,JI1507,1468d3f1-57e1-4a0f-bbaa-a4f253f419f7,12.160000000000000,10.029999999999999,./0.png
9.82118300159211,12.0345219997064,"738","18027",JI,Kore Health Post,,Functional,Primary,National Primary Healthcare Development Agency,JI1509,7ccde567-135f-4e0a-b8ee-fc662e513302,12.029999999999999,9.820000000000000,./0.png
9.98676700226183,12.0481280003249,"739","18027",JI,Ramfa Basic Health Center,,Functional,Primary,National Primary Healthcare Development Agency,JI1503,1f100c0f-ba9e-4d45-a04b-b4888a90be16,12.050000000000001,9.990000000000000,./0.png
10.1057180018286,12.089789999736,"740","18027",JI,Bulangu Cottage Hospital,,Functional,Secondary,National Primary Healthcare Development Agency,JI1501,32f4c476-777b-40ab-b5e4-115e50e552ec,12.090000000000000,10.109999999999999,./1.png
9.84398600184619,12.0643950004522,"741","18027",JI,Majeri Basic Health Center,,Functional,Primary,National Primary Healthcare Development Agency,JI1502,061607b3-37d7-4121-959c-ec47b12d2513,12.060000000000000,9.840000000000000,./0.png
9.89681500179463,12.0865719997265,"742","18027",JI,Dumadumin Toka Basic Health Center,,Functional,Primary,National Primary Healthcare Development Agency,JI1502,a6e16db7-f7fe-4a6d-8314-f4a487d219ae,12.090000000000000,9.900000000000000,./0.png
10.0992360023855,12.1820119997043,"743","18027",JI,Shakato Basic Health Center,,Functional,Primary,National Primary Healthcare Development Agency,JI1507,a5ed5f65-b004-4695-a99e-738b123d6baa,12.180000000000000,10.100000000000000,./0.png
10.1097460023196,12.0889620002232,"744","18027",JI,Bulangu Dispensary,,Unknown,Primary,National Primary Healthcare Development Agency,JI1501,2a42d032-dafc-4bce-a707-94450ee96b7f,12.090000000000000,10.109999999999999,./0.png
9.83825631856921,12.1051529896524,"748","18027",JI,Gidan Sarki Basic Health Center,,Unknown,Primary,National Primary Healthcare Development Agency,JI1509,61d63612-1c9d-41ae-b313-f79ed03417e5,12.109999999999999,9.840000000000000,./0.png
9.89371164825866,12.1656626252783,"749","18027",JI,Kargumaka Basic Health Center,,Functional,Primary,National Primary Healthcare Development Agency,JI1505,57673b40-3d1d-469c-820d-dc7b620db311,12.170000000000000,9.890000000000001,./0.png
8.01168300219156,4.83366899825777,"752","3019",AK,Ikot Otu Primary Health Center,,Functional,Primary,National Primary Healthcare Development Agency,AKSAED03,f12c86e2-893d-4846-a7c8-052dec5d0d19,4.830000000000000,8.010000000000000,./0.png
7.98389000204869,4.82338999817696,"753","3019",AK,Ikot Uyo Primary Center,,Functional,Primary,National Primary Healthcare Development Agency,AKSAED10,c29b55a6-0910-44de-a1f2-8a88b4dda055,4.820000000000000,7.980000000000000,./0.png
8.04233166908155,4.78880333134012,"754","3019",AK,Okoro Nsit Health Post,,Functional,Primary,National Primary Healthcare Development Agency,AKSAED08,6b1b0cd1-0724-48b5-bada-fb80dafd3e71,4.790000000000000,8.039999999999999,./0.png
8.08630337211772,4.88042724167158,"765","3019",AK,Airport Medical Center,,Functional,Primary,National Primary Healthcare Development Agency,AKSAED05,6edfaa77-808e-4ed1-8ea9-b2c36c928244,4.880000000000000,8.090000000000000,./0.png
11.4548900476708,6.82542828935879,"768","35011",TA,Jabu Primary Health Clinic,,Functional,Primary,National Primary Healthcare Development Agency,TRSSDA10,c033cdce-f0c2-4d7d-bb86-9bf82fe6d528,6.830000000000000,11.449999999999999,./0.png
11.1482100010956,7.03158833201264,"773","35011",TA,Mayo Sina Health Post,,Functional,Primary,National Primary Healthcare Development Agency,TRSSDA09,28de762b-03fb-4ccb-8647-f801f1214dd2,7.030000000000000,11.150000000000000,./0.png
11.06345717382,6.93658976785874,"796","35011",TA,Mayo Sumsum Primary Health Center,,Functional,Primary,National Primary Healthcare Development Agency,TRSSDA05,e4af88c8-4b64-4ea0-8a26-22876dc11524,6.940000000000000,11.060000000000000,./0.png
11.0924411110888,7.09499442223623,"797","35011",TA,Yelwa Maternity Clinic,,Functional,Primary,National Primary Healthcare Development Agency,TRSSDA09,28f2ef5d-09d1-44d3-beab-f5b045f8e6f7,7.090000000000000,11.090000000000000,./0.png
11.0513016717338,6.79781666624033,"799","35011",TA,Inkiri Health Post,,Functional,Primary,National Primary Healthcare Development Agency,TRSSDA04,40a3a352-2e97-45d1-a088-f9991cc60048,6.800000000000000,11.050000000000001,./0.png
11.116776786305,6.77241056033567,"800","35011",TA,Barup Ngikar Clinic,,Functional,Primary,National Primary Healthcare Development Agency,TRSSDA04,2047638a-bc94-43b8-abf8-c952ac970dc1,6.770000000000000,11.119999999999999,./0.png
11.0871933645949,7.00398511129114,"804","35011",TA,Gurgu Primary Health Center,,Functional,Primary,National Primary Healthcare Development Agency,TRSSDA09,a95e6354-7e8c-4e1a-acf5-bdda59af198d,7.000000000000000,11.090000000000000,./0.png
11.436586509408,6.94977888777564,"806","35011",TA,Tem Jauro Health Post,,Functional,Primary,National Primary Healthcare Development Agency,TRSSDA06,8c8c8db6-d79d-4e77-a59b-2338fe5f89ad,6.950000000000000,11.440000000000000,./0.png
11.139178430828,6.83945349003461,"807","35011",TA,Bagoba Clinic,,Functional,Primary,National Primary Healthcare Development Agency,TRSSDA04,366a21a0-a464-46b6-bb0e-004a8e05344c,6.840000000000000,11.140000000000001,./0.png
11.4075151508422,6.79859621391096,"812","35011",TA,Titong Primary Health Care,,Functional,Primary,National Primary Healthcare Development Agency,TRSSDA10,f458f795-d520-4687-911b-f278d9a16306,6.800000000000000,11.410000000000000,./0.png
11.5289718891741,6.95041625260638,"813","35011",TA,Tikobi Primary Health Center,,Functional,Primary,National Primary Healthcare Development Agency,TRSSDA06,7d128374-d240-4f36-a93a-f2a031899574,6.950000000000000,11.529999999999999,./0.png
11.4927581733943,6.99868010770277,"814","35011",TA,Sihip Primary Health Center,,Functional,Primary,National Primary Healthcare Development Agency,TRSSDA06,0e1d3f5a-0e0e-44f6-8c88-9172356aed2c,7.000000000000000,11.490000000000000,./0.png
11.2875366713372,6.77909833187571,"836","35011",TA,Tem Dispensary Clinic,,Functional,Primary,National Primary Healthcare Development Agency,TRSSDA01,9cb21cd6-f2d9-4e3f-a4b2-fb2259309a4a,6.780000000000000,11.289999999999999,./0.png
11.0684350013803,6.90031166600097,"837","35011",TA,Furmi Health Center,,Functional,Primary,National Primary Healthcare Development Agency,TRSSDA05,6fa0ec6d-648a-46bd-a150-1d1bcf11650e,6.900000000000000,11.070000000000000,./0.png
11.0842270083982,7.16804046778527,"838","35011",TA,Maisamari Basic Health Center,,Functional,Primary,National Primary Healthcare Development Agency,TRSSDA09,48ee90bb-28d5-42c5-ad51-add7f105e7e4,7.170000000000000,11.080000000000000,./0.png
11.4268516711017,6.78500333170517,"839","35011",TA,Kimbiyemin Health Center,,Functional,Primary,National Primary Healthcare Development Agency,TRSSDA10,0d68f97e-7dec-4385-b6f4-55c7333ac430,6.790000000000000,11.430000000000000,./0.png
11.3915833316579,6.91423999895804,"840","35011",TA,Kilayang Health Post,,Functional,Primary,National Primary Healthcare Development Agency,TRSSDA06,0fd7fd77-89bd-4087-8264-6847438cd41d,6.910000000000000,11.390000000000001,./0.png
11.0730033316346,6.80610333164078,"841","35011",TA,Kachalla-sah Health Post,,Functional,Primary,National Primary Healthcare Development Agency,TRSSDA04,47dc338e-a1a9-4e12-b932-a610569bb719,6.810000000000000,11.070000000000000,./0.png
11.13150342224,6.89562817755375,"842","35011",TA,Masewa Primary Health Center,,Functional,Primary,National Primary Healthcare Development Agency,TRSSDA05,1b447813-d459-4aaf-9bf6-a9b491aba095,6.900000000000000,11.130000000000001,./0.png
11.3121457117182,6.88498171180663,"843","35011",TA,Titong Primary Health Center,,Functional,Primary,National Primary Healthcare Development Agency,TRSSDA10,272e7939-3c2f-4f23-b934-1dd2da639519,6.880000000000000,11.310000000000000,./0.png
11.2110625756523,6.8305958675586,"844","35011",TA,Comprehensive Health Care Center Lekitaba,,Functional,Primary,National Primary Healthcare Development Agency,TRSSDA10,834af3af-e6a5-44f7-8153-22d5453f3981,6.830000000000000,11.210000000000001,./0.png
11.0562333343985,6.79229166596143,"847","35011",TA,Yerimaru Model Primary Health Center,,Functional,Primary,National Primary Healthcare Development Agency,TRSSDA04,04357cc5-c8cf-40cd-b6fd-e9c17556d240,6.790000000000000,11.060000000000000,./0.png
11.1462383319038,6.67173166590921,"868","35011",TA,Tep Primary Health Center Clinic,,Functional,Primary,National Primary Healthcare Development Agency,TRSSDA08,b5951a02-fdc1-4dde-9a24-eab067fb7295,6.670000000000000,11.150000000000000,./0.png
11.1393713713677,6.71681085706641,"871","35011",TA,Barup Primary Health Clinic,,Functional,Primary,National Primary Healthcare Development Agency,TRSSDA08,4422bf29-4bd4-4737-8bf3-03a74c8738dd,6.720000000000000,11.140000000000001,./0.png
11.5372550013255,6.70985999880694,"872","35011",TA,Barka Mayo Foru Primary Health Care,,Functional,Primary,National Primary Healthcare Development Agency,TRSSDA03,d865f9b9-c794-4e11-808c-ab2542236d3a,6.710000000000000,11.539999999999999,./0.png
11.1777266715174,6.70902166605058,"874","35011",TA,Mbuless Pea Health Post,,Functional,Primary,National Primary Healthcare Development Agency,TRSSDA02,9e3580f4-1726-4a74-94be-4705cad9c0b0,6.710000000000000,11.180000000000000,./0.png
11.3270569010792,6.51685859886791,"876","35011",TA,Kilatin Hainare Primary Health Care,,Functional,Primary,National Primary Healthcare Development Agency,TRSSDA03,9093be5e-f471-41ca-a86e-fa85fd8e0935,6.520000000000000,11.330000000000000,./0.png
11.1585005466224,6.58379005218417,"879","35011",TA,Mbar Nwah Dispensary,,Functional,Primary,National Primary Healthcare Development Agency,TRSSDA07,b470840f-a2da-4215-a697-10a935850bda,6.580000000000000,11.160000000000000,./0.png
11.2380561836864,6.52963190460438,"883","35011",TA,Tamnya Primary Health Center Clinic,,Functional,Primary,National Primary Healthcare Development Agency,TRSSDA07,2ae07eba-6ec9-4217-ab8b-9589b729d4dd,6.530000000000000,11.240000000000000,./0.png
11.2528784328496,6.71208647824932,"885","35011",TA,Dujire Dispensary,,Functional,Primary,National Primary Healthcare Development Agency,TRSSDA02,23ebc196-e900-4c91-8015-43eb310d00ae,6.710000000000000,11.250000000000000,./0.png
11.4230418641209,6.73955148037688,"886","35011",TA,Teriye Clinic,,Functional,Primary,National Primary Healthcare Development Agency,TRSSDA10,7c101aac-c963-42e1-9e82-c0087ce83cf9,6.740000000000000,11.420000000000000,./0.png
11.1134416360917,6.6031551475053,"887","35011",TA,Sakaka Primary Health Center,,Functional,Primary,National Primary Healthcare Development Agency,TRSSDA08,6bbc7c2c-ae33-4be0-a21b-3d564bb66ef1,6.600000000000000,11.109999999999999,./0.png
11.2518016682688,6.71210999911803,"888","35011",TA,Belel Health Post,,Functional,Primary,National Primary Healthcare Development Agency,TRSSDA02,6d679970-123c-4c99-8475-f4d41842dd85,6.710000000000000,11.250000000000000,./0.png
11.1958641562541,6.53727153656474,"889","35011",TA,Bang Primary Health Center,,Functional,Primary,National Primary Healthcare Development Agency,TRSSDA07,2843714b-4375-4961-bb9c-2de00c808c17,6.540000000000000,11.199999999999999,./0.png
11.2121850014911,6.62495999923011,"890","35011",TA,Mbamnga Primary Health Center,,Functional,Primary,National Primary Healthcare Development Agency,TRSSDA07,6dcf0241-c7e6-4f31-bfca-59399e43d00f,6.620000000000000,11.210000000000001,./0.png
11.354258331695,6.70386166553269,"899","35011",TA,Mang Primary Health Care,,Functional,Primary,National Primary Healthcare Development Agency,TRSSDA11,f38ed783-7445-4ad1-a039-0a0f098a0218,6.700000000000000,11.350000000000000,./0.png
11.3366404743201,6.70712259917669,"902","35011",TA,Tangana Primary Health Care,,Functional,Primary,National Primary Healthcare Development Agency,TRSSDA11,2419e1df-31b6-4dc5-8f82-bc2dd8f38878,6.710000000000000,11.340000000000000,./0.png
11.1005231995534,6.56482889274614,"903","35011",TA,Ndum Yaji Primary Health Care,,Functional,Primary,National Primary Healthcare Development Agency,TRSSDA07,68c01e10-6637-4147-965e-916433fa0e4e,6.560000000000000,11.100000000000000,./0.png
11.240384555456,6.65911830280017,"904","35011",TA,Never Tunga Primary Health Care,,Functional,Primary,National Primary Healthcare Development Agency,TRSSDA01,e4e2eaf4-fc45-439e-9edd-c1087756fbe8,6.660000000000000,11.240000000000000,./0.png
11.2794183311336,6.61938166556259,"930","35011",TA,Deng Primary Health Center,,Functional,Primary,National Primary Healthcare Development Agency,TRSSDA11,50915dbf-db94-432e-9b65-f70a3615db22,6.620000000000000,11.279999999999999,./0.png
11.2080916382861,6.75073847104563,"934","35011",TA,Lemefuah Health Post,,Functional,Primary,National Primary Healthcare Development Agency,TRSSDA02,c253e9c8-dc2b-42a9-a074-f743619caa42,6.750000000000000,11.210000000000001,./0.png
11.4123771016376,6.57446539919689,"937","35011",TA,Dorofi Health Center,,Functional,Primary,National Primary Healthcare Development Agency,TRSSDA03,675060a7-f2c9-44ff-8a1c-61db381d4e1f,6.570000000000000,11.410000000000000,./0.png
11.2457283315475,6.63915999936505,"938","35011",TA,Yambam Primary Health Center,,Functional,Primary,National Primary Healthcare Development Agency,TRSSDA01,bbc75283-42b8-423a-b1ba-a49d8ae8aad2,6.640000000000000,11.250000000000000,./0.png
11.1164437853144,6.5385609845069,"942","35011",TA,Warkaka Primary Health Center Clinic,,Functional,Primary,National Primary Healthcare Development Agency,TRSSDA07,27b19b8d-a6d9-46c6-8adf-73f832e77713,6.540000000000000,11.119999999999999,./0.png
11.2507815124068,6.6448250159935,"943","35011",TA,Bang Primary Health Center,,Functional,Primary,National Primary Healthcare Development Agency,TRSSDA01,7aa91ce8-e78d-451d-bd88-a87fd12c31bb,6.640000000000000,11.250000000000000,./0.png
11.4666022693934,6.65131728571708,"946","35011",TA,Mayo Dule Health Post,,Functional,Primary,National Primary Healthcare Development Agency,TRSSDA03,73f6105e-a511-4158-a207-f5b4c263bed3,6.650000000000000,11.470000000000001,./0.png
8.37159200204422,11.3005360002582,"948","20029",KN,Faskar Maaji Health Post,,Functional,Primary,National Primary Healthcare Development Agency,KN4104,9de3780a-4c0a-4a6b-aa0c-6fe0333e90c9,11.300000000000001,8.369999999999999,./0.png
8.40577600192787,11.2488330000505,"949","20029",KN,Tudun Wada Government College Dispensary,,Functional,Primary,National Primary Healthcare Development Agency,KN4110,2f187905-9581-4a51-b864-e6005d832ead,11.250000000000000,8.410000000000000,./0.png
8.41052448168633,11.2934707886662,"950","20029",KN,Shuwaki Nysc Health Clinic,,Functional,Primary,National Primary Healthcare Development Agency,KN4109,ea5c117e-086b-4059-95b7-48cdc6fda70b,11.289999999999999,8.410000000000000,./0.png
8.37263300238559,11.2847329999456,"951","20029",KN,Faska Wambai Health Post,,Functional,Primary,National Primary Healthcare Development Agency,KN4109,8e5aafb8-1264-4a3c-983e-3d3ff9b45640,11.279999999999999,8.369999999999999,./0.png
8.52210584285221,11.1860967185794,"952","20029",KN,Kurkujawa Health Post,,Functional,Primary,National Primary Healthcare Development Agency,KN4105,cb0818d5-c671-4c27-b757-23e1b54a8f78,11.190000000000000,8.520000000000000,./0.png
8.43637100268183,11.3231809995322,"953","20029",KN,Karefa Health Post,,Functional,Primary,National Primary Healthcare Development Agency,KN4106,28d81de5-fb62-4038-8d7a-c3d1e358b254,11.320000000000000,8.440000000000000,./0.png
8.44968700251115,11.2489419996815,"954","20029",KN,Jandutse Health Post,,Functional,Primary,National Primary Healthcare Development Agency,KN4104,422e556a-41b7-43c2-a437-54c5c5b2b356,11.250000000000000,8.449999999999999,./0.png
8.39284907489603,11.3273303050793,"955","20029",KN,Rugu Rugu Basic Health Center,,Functional,Primary,National Primary Healthcare Development Agency,KN4109,4ac8e6bc-9b77-442a-9ba8-4711bb600c7b,11.330000000000000,8.390000000000002,./0.png
8.31866400202737,11.2749680001877,"956","20029",KN,Sumana Health Post,,Functional,Primary,National Primary Healthcare Development Agency,KN4111,6c8eb5ca-cc9e-4ba0-a9b5-1fb6cc1a378e,11.270000000000000,8.320000000000000,./0.png
8.35235636413425,11.3219770995915,"957","20029",KN,Ruwan Tabo Health Post,,Functional,Primary,National Primary Healthcare Development Agency,KN4104,1ab39b95-a48c-4fb6-8192-1a414b355de4,11.320000000000000,8.350000000000000,./0.png
8.40646271704868,11.3050599606722,"958","20029",KN,Shuwaki Health Post,,Functional,Primary,National Primary Healthcare Development Agency,KN4109,d548ed99-879b-4f14-a1f1-fc74f8314dee,11.310000000000000,8.410000000000000,./0.png
8.40731400270589,11.2592369995984,"959","20029",KN,Tudun Wada Ggss Dispensary,,Functional,Primary,National Primary Healthcare Development Agency,KN4108,2671c6c9-e66c-49ef-96ed-171ab57314bd,11.260000000000000,8.410000000000000,./0.png
8.41025691539206,11.3335243479019,"960","20029",KN,Yalwa Health Post,,Functional,Primary,National Primary Healthcare Development Agency,KN4106,33c8108a-8d8f-4ecd-9f31-61034819cb08,11.330000000000000,8.410000000000000,./0.png
8.4851568863328,11.2894919028484,"961","20029",KN,Wuna Health Post,,Functional,Primary,National Primary Healthcare Development Agency,KN4107,459809be-fbf9-48a5-bef3-5b0ba44f7c58,11.289999999999999,8.490000000000000,./0.png
8.56433800253081,11.2198859997395,"963","20029",KN,Farun Ruwa Health Post,,Functional,Primary,National Primary Healthcare Development Agency,KN4107,3e2864f2-35be-452c-baac-28a50061409d,11.220000000000001,8.560000000000000,./0.png
8.63985022023279,11.3482386874019,"964","20029",KN,Gazobi Health Post,,Functional,Primary,National Primary Healthcare Development Agency,KN4103,f64d3328-60a6-4573-ac33-42551d840b13,11.350000000000000,8.640000000000002,./0.png
8.41776097005723,11.2492681756936,"965","20029",KN,Hayin Yawa General Hospital,,Functional,Secondary,National Primary Healthcare Development Agency,KN4104,822317ed-5fd1-4cc2-9a6e-fe23a4aaa8ad,11.250000000000000,8.420000000000000,./1.png
8.56500745246674,11.2626108997855,"966","20029",KN,Nata Ala Health Basic Health Center,,Functional,Primary,National Primary Healthcare Development Agency,KN4107,8ebad083-7274-43a7-8cdc-8b1c8e0bdb47,11.260000000000000,8.570000000000000,./0.png
8.26606884289899,11.2798478025498,"967","20029",KN,Jeli Primary Health Center,,Functional,Primary,National Primary Healthcare Development Agency,KN4111,09aa4564-df5c-42ec-b734-c227388d30b8,11.279999999999999,8.270000000000000,./0.png
8.34585300219391,11.2678749995443,"968","20029",KN,Yarmariya Primary Health Center,,Functional,Primary,National Primary Healthcare Development Agency,KN4111,f6be1684-77a6-448f-a169-4740c702c441,11.270000000000000,8.350000000000000,./0.png
8.3567880019417,11.2495809994712,"969","20029",KN,Jammaje Health Post,,Functional,Primary,National Primary Healthcare Development Agency,KN4108,e3e373ae-a185-4a24-8708-a964587c2037,11.250000000000000,8.359999999999999,./0.png
8.40482203707447,11.2485435568472,"970","20029",KN,Tudun Wada Tsohon Gari Health Clinic,,Functional,Primary,National Primary Healthcare Development Agency,KN4110,d5be663a-051c-4972-a7ba-55c407142f6f,11.250000000000000,8.400000000000000,./0.png
8.30834356838964,11.3367602102476,"971","20029",KN,Yaryasa Health Post,,Functional,Primary,National Primary Healthcare Development Agency,KN4111,a9221a97-7944-49d6-8b2e-ed06436a29c5,11.340000000000000,8.310000000000000,./0.png
8.47013800221943,11.1850539996325,"972","20029",KN,Yarfulani Health Post,,Functional,Primary,National Primary Healthcare Development Agency,KN4105,c492697d-9409-49c7-afad-6ed8d9ea8853,11.190000000000000,8.470000000000002,./0.png
8.68531200185907,11.3227999999496,"973","20029",KN,Dariya Health Post,,Functional,Primary,National Primary Healthcare Development Agency,KN4103,c4b4f56f-8bef-4a49-b2a7-2def355012c3,11.320000000000000,8.690000000000000,./0.png
8.67052500254238,11.3701720000804,"974","20029",KN,Dalawa Health Post,,Functional,Primary,National Primary Healthcare Development Agency,KN4103,d60da41d-533b-48aa-89d5-750266000b10,11.369999999999999,8.670000000000000,./0.png
8.73949500219343,11.3280120001849,"975","20029",KN,Baburi Health Post,,Functional,Primary,National Primary Healthcare Development Agency,KN4101,d2b655b9-69ee-44d9-8609-30130065e859,11.330000000000000,8.740000000000000,./0.png
8.76850409528048,11.2155596077901,"976","20029",KN,Tukuda Health Post,,Functional,Primary,National Primary Healthcare Development Agency,KN4101,e6fd0f52-b552-4381-ab09-66538f611973,11.220000000000001,8.770000000000000,./0.png
8.77178700206433,11.4077979995313,"977","20029",KN,Fala Health Post,,Functional,Primary,National Primary Healthcare Development Agency,KN4102,4ffb7de3-8f15-4007-8f19-0424eba3f729,11.410000000000000,8.770000000000000,./0.png
8.71811432112399,11.3177024294519,"978","20029",KN,Rufan Health Post,,Functional,Primary,National Primary Healthcare Development Agency,KN4101,d0d050ab-2268-4614-870b-e001b2989e3a,11.320000000000000,8.720000000000002,./0.png
8.72745113206846,11.3854585548155,"979","20029",KN,Burum Burum Primary Health Center,,Functional,Primary,National Primary Healthcare Development Agency,KN4102,4e433168-c056-435a-ba2b-88b2b35797d2,11.390000000000001,8.730000000000000,./0.png
11.065505001422,12.8356479998452,"1014","702",YO,Tarbutu Comm Dispensary,,Functional,Primary,National Primary Healthcare Development Agency,"70206",292224d9-6e21-4b69-831f-1a705ca3e838,12.840000000000000,11.070000000000000,./0.png
11.0430030015588,12.8138180003859,"1018","702",YO,Jawa Comprehensive Health Center,,Unknown,Primary,National Primary Healthcare Development Agency,"70206",9f0cefeb-0ec4-4b4f-b434-4e00ea3017b8,12.810000000000000,11.039999999999999,./0.png
4.37205900280215,11.7632599999318,"1020","514",KB,Aida Primary Health Care Center,,Unknown,Primary,National Primary Healthcare Development Agency,"51407",42907ade-7b9a-48b1-b5cf-5907b947beda,11.760000000000000,4.370000000000000,./0.png
4.31126700346545,11.740478999781,"1021","514",KB,Danwa Dispensary,,Functional,Primary,National Primary Healthcare Development Agency,"51407",7d188d4c-f636-4706-97dc-a4c6019119ea,11.740000000000000,4.310000000000000,./0.png
4.37755000331176,11.9184360000605,"1022","514",KB,Duhuwa Dispensary,,Unknown,Primary,National Primary Healthcare Development Agency,"51405",6e8ab726-273e-4a2f-ba45-87dba81a806d,11.920000000000000,4.380000000000000,./0.png
4.43098800345998,11.7159829996806,"1023","514",KB,Kuka Kogo Dispensary,,Unknown,Primary,National Primary Healthcare Development Agency,"51407",dbc8ce06-fff5-4d37-ba18-9a244dfa797a,11.720000000000001,4.430000000000000,./0.png
4.43221300329593,11.9267179997774,"1024","514",KB,Bugga Kokani Hospital,,Unknown,Primary,National Primary Healthcare Development Agency,"51411",8a21bbd3-00cf-44ea-9ffb-7bbbb09c0880,11.930000000000000,4.430000000000000,./0.png
4.34814400343013,11.7512039997434,"1025","514",KB,Sagwarada Dispensary,,Functional,Primary,National Primary Healthcare Development Agency,"51407",09f5ad5d-6403-45a0-af35-ba338446f373,11.750000000000000,4.350000000000000,./0.png
4.47110900283511,11.7339920001018,"1026","514",KB,Dadin Kowa Dispensary,,Functional,Primary,National Primary Healthcare Development Agency,"51407",78fb119c-bf99-4b73-9adb-d167934dee97,11.730000000000000,4.470000000000000,./0.png
4.32125300351692,11.7451559996263,"1029","514",KB,Danyen Gari Dispensary,,Unknown,Primary,National Primary Healthcare Development Agency,"51407",db50885e-dba3-4785-a209-56124b037035,11.750000000000000,4.320000000000001,./0.png
4.39297200313321,11.8955309995867,"1030","514",KB,Adarai Primary Health Care,,Functional,Primary,National Primary Healthcare Development Agency,"51401",597cf17c-125e-4eda-b366-d37ffaa8b0cf,11.900000000000000,4.390000000000000,./0.png
4.41224400332933,11.7357120002809,"1031","514",KB,Rura Dispensary,,Unknown,Primary,National Primary Healthcare Development Agency,"51407",d3b3eab1-0639-458e-8c9d-7387535473df,11.740000000000000,4.410000000000000,./0.png
4.43501500300621,11.7800509999419,"1032","514",KB,Rayuwa Clinic,,Functional,Primary,National Primary Healthcare Development Agency,"51407",72fd5a0b-1d27-4e85-b2e4-031175ade86a,11.779999999999999,4.440000000000002,./0.png
4.4508920031251,11.7249969998796,"1033","514",KB,Jargaba Gabas Health Post,,Unknown,Primary,National Primary Healthcare Development Agency,"51407",94a0ff70-2db3-484e-a9b8-a52646221164,11.720000000000001,4.450000000000000,./0.png
4.32885700344161,11.9126379997816,"1034","514",KB,Ruwan Fili Dispensary,,Functional,Primary,National Primary Healthcare Development Agency,"51404",e8fdbc02-c15c-4cd4-81f8-025baa7896cf,11.910000000000000,4.330000000000000,./0.png
4.43312800322147,11.7793960003131,"1035","514",KB,Liba Dispensary,,Functional,Primary,National Primary Healthcare Development Agency,"51407",e059a22a-1dc5-4ccc-b93b-eb2f959dd807,11.779999999999999,4.430000000000000,./0.png
4.29801500299206,12.0181333303656,"1037","514",KB,Hulkui Dispensary,,Functional,Primary,National Primary Healthcare Development Agency,"51411",ca7c459d-e2a3-42b6-b8e9-633a6da4af00,12.020000000000000,4.300000000000000,./0.png
4.27359900300091,12.2975630000113,"1038","514",KB,Kangiwa Dispensary,,Functional,Primary,National Primary Healthcare Development Agency,"51410",8c9447ab-e987-4a05-aea4-c44a006031f5,12.300000000000001,4.270000000000000,./0.png
4.26919800329544,12.2250139998489,"1039","514",KB,Wawa Karasa Dispensary,,Unknown,Primary,National Primary Healthcare Development Agency,"51410",53bb13db-818e-4446-8798-ae8134dc55c7,12.230000000000000,4.270000000000000,./0.png
4.27815600360437,12.1437040003622,"1040","514",KB,Kuberi Health Center,,Functional,Primary,National Primary Healthcare Development Agency,"51406",07a3a6b2-b471-4245-9e5f-5ed7ed3ba7f7,12.140000000000001,4.280000000000000,./0.png
4.22019000328776,12.0964920004121,"1042","514",KB,Rafin Na Gindi Clinic,,Functional,Primary,National Primary Healthcare Development Agency,"51409",42689613-6859-4f67-b40e-a0b59ec8fe73,12.100000000000000,4.220000000000000,./0.png
4.22275800300016,12.0403280004229,"1043","514",KB,Sabon Sara Dispensary,,Functional,Primary,National Primary Healthcare Development Agency,"51404",157fcea4-8d21-4aed-b416-7aae40d7e489,12.039999999999999,4.220000000000000,./0.png
4.23301500295792,11.998479000476,"1044","514",KB,Kawara Galadima B Dispensary,,Unknown,Primary,National Primary Healthcare Development Agency,"51404",b44c3aa6-7920-4c0d-9868-501bb2110bf7,12.000000000000000,4.230000000000002,./0.png
4.26531600324227,12.2774590001045,"1045","514",KB,Sambawa Health Clinic,,Unknown,Primary,National Primary Healthcare Development Agency,"51410",7129bab9-7e62-421e-9342-89f7cc720182,12.279999999999999,4.270000000000000,./0.png
4.27169600337696,12.1047469997829,"1046","514",KB,Rafin Tofa Health Post,,Unknown,Primary,National Primary Healthcare Development Agency,"51406",032817c5-7820-4ed3-84de-ec4fe400ed0d,12.100000000000000,4.270000000000000,./0.png
4.27959000318384,12.2491430001105,"1047","514",KB,Mayalo Health Post,,Functional,Primary,National Primary Healthcare Development Agency,"51410",0abaa0a6-f142-41f8-bb6e-bb76d9b71022,12.250000000000000,4.280000000000000,./0.png
4.30431800317425,12.0811960000949,"1048","514",KB,Nikki Dispensary,,Unknown,Primary,National Primary Healthcare Development Agency,"51402",c0ca3e99-7476-4648-8ba7-9b7f917d1488,12.080000000000000,4.300000000000000,./0.png
4.31405100324934,12.0142589997281,"1049","514",KB,Acikaratu Dispensary,,Functional,Primary,National Primary Healthcare Development Agency,"51411",81589b37-e171-4292-8ddf-4bc436843277,12.010000000000000,4.310000000000000,./0.png
4.37051700274217,12.0750879999075,"1050","514",KB,Maiyama General Hospital,,Functional,Secondary,National Primary Healthcare Development Agency,"51408",2d3d0884-14a7-42f6-a689-dbc2f61dc4d3,12.080000000000000,4.370000000000000,./1.png
4.261209003605,12.2773939998051,"1051","514",KB,Sambawa Primary Health Center,,Functional,Primary,National Primary Healthcare Development Agency,"51410",90dc2294-b4ca-405a-a809-0773806b0770,12.279999999999999,4.260000000000000,./0.png
4.32504700311282,12.126383000191,"1052","514",KB,Zara Binni Dispensary,,Functional,Primary,National Primary Healthcare Development Agency,"51402",819c9445-571d-4d81-8a43-e0c60cf4485c,12.130000000000001,4.330000000000000,./0.png
4.37701200278431,12.005476000288,"1053","514",KB,Saran Dosa Dispensary,,Functional,Primary,National Primary Healthcare Development Agency,"51411",3e452bbe-d5ec-4798-9dc0-a4072c05d643,12.010000000000000,4.380000000000000,./0.png
4.29955000363207,12.1068699996598,"1055","514",KB,Tabki Tara Primary Health Center,District heads house,Functional,Primary,National Primary Healthcare Development Agency,"51406",913f29e4-05ac-49d8-99ac-7080cdda4a9d,12.109999999999999,4.300000000000000,./0.png
4.22576000294274,12.2468600000504,"1056","514",KB,Bagudo Maternal and Child Health Clinic,,Functional,Primary,National Primary Healthcare Development Agency,"51403",148f2b00-3d15-4b34-8023-fcaa4001082b,12.250000000000000,4.230000000000002,./0.png
4.29758200280991,12.1036480003629,"1057","514",KB,Gidiga Health Post,,Functional,Primary,National Primary Healthcare Development Agency,"51406",48cc830d-db7e-4a62-9c0f-33d72f582dcc,12.100000000000000,4.300000000000000,./0.png
4.222399003533,12.246753000512,"1058","514",KB,Gumbin Kure Health Post,,Functional,Primary,National Primary Healthcare Development Agency,"51403",e7ac21cc-aaee-4693-b778-2477c661b194,12.250000000000000,4.220000000000000,./0.png
4.23121300349708,12.2926590004906,"1059","514",KB,Gumawa Dispensary,,Unknown,Primary,National Primary Healthcare Development Agency,"51403",073e4fe9-41da-4c00-b68d-9a34fd331ea0,12.289999999999999,4.230000000000002,./0.png
4.23685200363407,11.9988670003824,"1060","514",KB,Millenium Development Goals Dispensary,,Functional,Primary,National Primary Healthcare Development Agency,"51404",4245b0a6-a2ab-4cbe-b51a-737ec3772c92,12.000000000000000,4.240000000000000,./0.png
4.23993800295391,12.218650000448,"1061","514",KB,Gamjeji Health Post,,Functional,Primary,National Primary Healthcare Development Agency,"51403",c556d7c5-a677-4b86-aa36-791591d63fe2,12.220000000000001,4.240000000000000,./0.png
4.25517700332881,12.0382190002914,"1062","514",KB,Kamba Dispensary,,Functional,Primary,National Primary Healthcare Development Agency,"51404",aa3e1f79-9a1f-45ca-849d-60c263a0dd05,12.039999999999999,4.260000000000000,./0.png
4.33072000301975,12.0091909998377,"1063","514",KB,Dogon Daji Primary Health Care,,Unknown,Primary,National Primary Healthcare Development Agency,"51405",30f6bad9-d7fa-4258-b6fa-567420ced14b,12.010000000000000,4.330000000000000,./0.png
4.36549500317817,12.1423449997427,"1064","514",KB,Unguwar Kurya Fada Dispensary,,Functional,Primary,National Primary Healthcare Development Agency,"51402",90ded231-7cfd-4918-82aa-89a41fdcd6bc,12.140000000000001,4.370000000000000,./0.png
4.27230200344324,12.034617999704,"1065","514",KB,Karaye Primary Health Care,,Functional,Primary,National Primary Healthcare Development Agency,"51405",68fa51d4-1ae7-48b6-a503-096cb65e7a1a,12.029999999999999,4.270000000000000,./0.png
4.38200200357184,12.1390879997306,"1066","514",KB,Giwatazo Shiyar Ginga Dispensary,,Functional,Primary,National Primary Healthcare Development Agency,"51402",98218002-ab09-4f26-8aa7-326c9dd7ff63,12.140000000000001,4.380000000000000,./0.png
4.38635700295347,11.9765890000425,"1067","514",KB,Kurunkudu Dispensary,,Functional,Primary,National Primary Healthcare Development Agency,"51401",6dea5bc0-f1c9-445a-ab11-77bf32ce0498,11.980000000000000,4.390000000000000,./0.png
4.12338900354537,12.113246000517,"1068","514",KB,Mungadi Maternal and Child Health Clinic,,Unknown,Primary,National Primary Healthcare Development Agency,"51409",70b9b9c5-abc8-4443-90ff-d7353bf64789,12.109999999999999,4.120000000000000,./0.png
4.12775500343555,12.1731350005163,"1069","514",KB,Botoro Health Post,,Functional,Primary,National Primary Healthcare Development Agency,"51409",7a9bdbb1-d9b3-4ff5-a610-76f2d0b9358c,12.170000000000000,4.130000000000000,./0.png
4.1226300036177,12.1184030000149,"1070","514",KB,Mungadi Dispensary,,Functional,Primary,National Primary Healthcare Development Agency,"51409",a7cb5199-03b1-45e8-8a61-17190461d038,12.119999999999999,4.120000000000000,./0.png
7.21826720280052,9.18479689944221,"1074","27024",NI,Gauraka Model Primary Health Center,,Functional,Primary,National Primary Healthcare Development Agency,NISWSE09,ad4dde5e-064e-4045-b017-55ad1a69f336,9.180000000000000,7.220000000000000,./0.png
7.2204210026612,9.23697499889701,"1094","27024",NI,Kofa Primary Health Clinc,,Functional,Primary,National Primary Healthcare Development Agency,NISWSE05,900d5fd8-4e64-4c42-9aca-8c5eecbe9585,9.240000000000000,7.220000000000000,./0.png
7.32499470255694,9.26640179921677,"1095","27024",NI,Tafa Comprehensive Primary Healthcare,,Functional,Primary,National Primary Healthcare Development Agency,NISWSE06,7854b0e8-2229-4951-b80c-6ce4849b5002,9.270000000000000,7.320000000000000,./0.png
7.22741280259539,9.30490209887256,"1102","27024",NI,Iwa Primary Health Center,,Functional,Primary,National Primary Healthcare Development Agency,NISWSE07,09ec5057-96e6-4244-a695-e4a4e405cf52,9.300000000000001,7.230000000000000,./0.png
7.24691260286754,9.31840789883004,"1103","27024",NI,Sabon Wuse Basic Health Center,,Functional,Primary,National Primary Healthcare Development Agency,NISWSE07,7fa49163-fc3d-4d13-88fa-3bcc177f4c8c,9.320000000000000,7.250000000000000,./0.png
7.24870280232542,9.31995639919353,"1104","27024",NI,Baban Tunga Basic Health Center,,Functional,Primary,National Primary Healthcare Development Agency,NISWSE07,919707d0-e731-4c2c-954b-5e36bb39f6e5,9.320000000000000,7.250000000000000,./0.png
7.25082333536113,9.32029499934,"1110","27024",NI,Dadikowa Primary Health Center,,Functional,Primary,National Primary Healthcare Development Agency,NISWSE07,6ef451bf-62b7-4f5e-ae44-6825e50e5e35,9.320000000000000,7.250000000000000,./0.png
7.19109900215261,9.15564499939239,"1132","27024",NI,Old Army Barrack Basic Health Center,,Functional,Secondary,National Primary Healthcare Development Agency,NISWSE10,0ff8be21-3174-4da0-8d1f-e64d39ec38b9,9.160000000000000,7.190000000000000,./1.png
9.35210803209225,9.87009549016957,"1156","5017",BA,Lim Health Clinic,,Functional,Primary,National Primary Healthcare Development Agency,BA1701,11e13e86-1ad9-4a17-a5fe-59eee55e8e46,9.869999999999999,9.350000000000000,./0.png
9.56040000213263,9.50483999953784,"1172","5017",BA,Tongrot Health Clinic Boi,,Unknown,Primary,National Primary Healthcare Development Agency,BA1705,8da8d85f-b8ea-4dfb-9226-823c855b6072,9.500000000000000,9.560000000000000,./0.png
9.72487000180669,9.80286999900178,"1190","5017",BA,Wuro Geje Health Clinic,,Functional,Primary,National Primary Healthcare Development Agency,BA1713,9211954e-8189-4490-ba81-d69ee494872c,9.800000000000001,9.720000000000001,./0.png
9.91907090391228,9.64425167379476,"1212","5017",BA,Dull Primary Health Center,,Functional,Primary,National Primary Healthcare Development Agency,BA1710,b27ee5bb-096c-4f15-a349-7933c54da191,9.640000000000001,9.920000000000000,./0.png
9.60213750236595,10.9349320996701,"1227","5015",BA,Kujera Maternity Primary Health Center,,Functional,Primary,National Primary Healthcare Development Agency,BA1504,0e4e8f04-978f-46bd-ad09-426d0f3ea125,10.930000000000000,9.600000000000000,./0.png
9.58651487998776,11.1376748211217,"1229","5015",BA,Gudduba Health Post,,Functional,Primary,National Primary Healthcare Development Agency,BA1502,6f73efbe-0520-4cd3-b620-620dcac1d647,11.140000000000001,9.590000000000000,./0.png
9.57947106237052,11.1142607836877,"1230","5015",BA,Limi Health Post,,Functional,Primary,National Primary Healthcare Development Agency,BA1501,cf03378d-0ff9-46cb-a1f6-88f99495395a,11.109999999999999,9.580000000000000,./0.png
9.57298130177719,11.0876622999478,"1231","5015",BA,Dana Gari Health Post,Balma Despensary,Functional,Primary,National Primary Healthcare Development Agency,BA1501,47100c47-9806-4263-9f3b-e7b1b5d6525c,11.090000000000000,9.570000000000000,./0.png
9.56673046047491,11.080595964203,"1233","5015",BA,Ningi Town Maternity,Kongoro Health Post,Functional,Primary,National Primary Healthcare Development Agency,BA1516,3d11fb47-4f57-436c-89e6-458b07d4f5ef,11.080000000000000,9.570000000000000,./0.png
8.85580000204106,11.0979199995772,"1262","5015",BA,Dabar Baga Dispensary,,Functional,Primary,National Primary Healthcare Development Agency,BA1510,70b9f3e8-af4d-4aab-81ce-ebb462a7a193,11.100000000000000,8.859999999999999,./0.png
9.00244300248255,10.9612819999975,"1263","5015",BA,Deru Dispensary,,Functional,Primary,National Primary Healthcare Development Agency,BA1514,30864f30-ace3-4b08-b33e-625597463cb8,10.960000000000001,9.000000000000000,./0.png
9.06035600215836,11.0440480000713,"1264","5015",BA,Dana Gari Health Post,,Functional,Primary,National Primary Healthcare Development Agency,BA1511,b56d3bfb-0f71-49f1-8a3d-9591853290ba,11.039999999999999,9.060000000000000,./0.png
8.90474200260214,11.0142249998304,"1265","5015",BA,Burra General Hospital,,Functional,Secondary,National Primary Healthcare Development Agency,BA1508,06150748-7066-4da1-830c-74baca4acd2d,11.010000000000000,8.900000000000000,./1.png
9.02822300243163,11.2688830001667,"1266","5015",BA,Kafin Lemo Health Clinic,,Functional,Primary,National Primary Healthcare Development Agency,BA1513,212e7f2f-2f53-4c5a-9206-709580a6f411,11.270000000000000,9.029999999999999,./0.png
8.99193500174402,11.0832109993542,"1267","5015",BA,Kurmin Gabas Health Post,,Functional,Primary,National Primary Healthcare Development Agency,BA1511,57aeaba9-d188-4de1-8830-1e565f37d54b,11.080000000000000,8.990000000000000,./0.png
9.05758900225713,10.8653560000876,"1268","5015",BA,Yada Gungume Primary Health Center,,Functional,Primary,National Primary Healthcare Development Agency,BA1509,9f58114e-70d1-4067-bc3d-aba3e51c5209,10.869999999999999,9.060000000000000,./0.png
8.83936709229278,11.0752879397492,"1272","5015",BA,Mamiso Health Post,,Functional,Primary,National Primary Healthcare Development Agency,BA1510,2855c862-48ec-4b7d-b6a4-bb9677071315,11.080000000000000,8.840000000000000,./0.png
8.96969500226712,10.8895599993081,"1299","5015",BA,Tudun Jarkoya Dispensary,,Functional,Primary,National Primary Healthcare Development Agency,BA1514,d8fc28df-e168-4a03-9745-5c7ad5485455,10.890000000000001,8.970000000000002,./0.png
9.0264840022676,10.8684380001222,"1300","5015",BA,Kumba Health Post,,Functional,Primary,National Primary Healthcare Development Agency,BA1509,93b5104e-fee0-400b-b7ab-b0641b905361,10.869999999999999,9.029999999999999,./0.png
9.10424600176974,10.8986379997615,"1301","5015",BA,Kajala Health Clinic,,Functional,Primary,National Primary Healthcare Development Agency,BA1518,b7b29003-a754-4f26-9768-78c78a8b89d3,10.900000000000000,9.100000000000000,./0.png
7.88907500266843,10.6944830000339,"1307","19021",KD,Gamgira Primary Health Center,,Functional,Primary,National Primary Healthcare Development Agency,KD2102,4f5aed97-11ec-4ddd-b91d-f43578a50725,10.690000000000000,7.890000000000000,./0.png
7.88105630646474,10.7095472468558,"1309","19021",KD,Gamagira Primary Health Center,,Functional,Primary,National Primary Healthcare Development Agency,KD2102,a070fc16-33aa-4e08-ad62-5f86ff7fc75f,10.710000000000001,7.880000000000000,./0.png
7.92274500224089,10.9937869998011,"1316","19021",KD,Tofa Health Clinic,,Functional,Primary,National Primary Healthcare Development Agency,KD2107,acda0088-8f40-4b8f-9d70-62057c61a599,10.990000000000000,7.920000000000000,./0.png
7.90029100279494,11.0679370000449,"1317","19021",KD,Awai Primary Health Center,,Functional,Primary,National Primary Healthcare Development Agency,KD2104,9800c18b-c9d1-4024-8e67-d2fa66ed0417,11.070000000000000,7.900000000000000,./0.png
7.93966800203482,11.0286569998619,"1321","19021",KD,Magana Rural Health Center,,Unknown,Primary,National Primary Healthcare Development Agency,KD2107,baab1bba-1fc3-453f-9740-d84c64cd698c,11.029999999999999,7.940000000000000,./0.png
7.9400330026789,11.0247569998757,"1322","19021",KD,Adk Ultimate Medical Complex,,Unknown,Primary,National Primary Healthcare Development Agency,KD2107,44a9ef9e-35cb-4074-95bf-03563eac4af2,11.020000000000000,7.940000000000000,./0.png
7.85720500248294,10.9761099994021,"1323","19021",KD,Damari Primary Health Center,,Functional,Primary,National Primary Healthcare Development Agency,KD2105,66ecc212-4f92-4b30-9859-9181b10a6586,10.980000000000000,7.860000000000000,./0.png
7.85883900228794,10.8352919995102,"1324","19021",KD,Danjaba Health Center,,Functional,Primary,National Primary Healthcare Development Agency,KD2102,1c225a8b-e298-4edc-98ff-b34c75d40941,10.840000000000000,7.860000000000000,./0.png
7.94020500251517,10.9610989996408,"1325","19021",KD,Kwadaro Health Clinic,,Functional,Primary,National Primary Healthcare Development Agency,KD2107,b6cf6d9d-0a98-4e3c-8185-0e7fe218a008,10.960000000000001,7.940000000000000,./0.png
7.84574900209446,11.1047109997755,"1326","19021",KD,Bagaldi Health Center,,Functional,Primary,National Primary Healthcare Development Agency,KD2104,d67be93e-25ea-40ff-a6ef-2c438e7ef02c,11.100000000000000,7.850000000000000,./0.png
7.84742400199418,11.0522210001463,"1327","19021",KD,Yakasai Primary Health Center,,Functional,Primary,National Primary Healthcare Development Agency,KD2107,17e5d318-382a-4fbd-882e-28d0bae6a01c,11.050000000000001,7.850000000000000,./0.png
7.95407900200279,11.164205999588,"1328","19021",KD,Richifa Health Care,,Functional,Primary,National Primary Healthcare Development Agency,KD2109,c7499722-947b-4bf1-9392-d604faa2781a,11.160000000000000,7.950000000000000,./0.png
7.99030300243147,11.1208609999036,"1333","19021",KD,Magada Health Center,,Functional,Primary,National Primary Healthcare Development Agency,KD2104,22d8cac7-5764-4427-a94d-9a5e629133a5,11.119999999999999,7.990000000000000,./0.png
8.02944500252486,11.0503419998318,"1334","19021",KD,Madarze Health Center,,Functional,Primary,National Primary Healthcare Development Agency,KD2110,c781e77a-535f-4749-9fc2-372e837f07df,11.050000000000001,8.029999999999999,./0.png
7.99304200193769,11.1878320000347,"1335","19021",KD,Kwasallo Primary Health Center,,Functional,Primary,National Primary Healthcare Development Agency,KD2106,efbf24a1-a61a-439c-aa2f-73befa2cda61,11.190000000000000,7.990000000000000,./0.png
8.00628000266727,11.1536329994414,"1336","19021",KD,Dinya Primary Health Center,,Functional,Primary,National Primary Healthcare Development Agency,KD2106,f94c0479-735e-45b3-a551-e0ac7fa0e716,11.150000000000000,8.010000000000000,./0.png
8.1097650021756,11.0170639994435,"1340","19021",KD,Kuyamutsa Health Center,,Functional,Primary,National Primary Healthcare Development Agency,KD2111,e3f4ca59-29ea-4de6-8f6f-69c6adc71132,11.020000000000000,8.109999999999999,./0.png
